@Sonygps/ver1.0/wgs-84/gps-cs3.0
$GPGSA,A,2,13,02,10,,,,,,,,,,05.7,05.6,00.9*0A
$GPGSV,3,1,12,10,57,284,42,02,56,319,43,13,40,050,46,04,66,089,42*7C
$GPGSV,3,2,12,05,35,268,43,17,24,173,00,25,20,089,00,07,16,106,32*74
$GPGSV,3,3,12,23,14,040,29,08,06,139,00,12,05,272,00,30,00,299,00*74
$GPRMC,012258,A,3637.9008,N,13811.3569,E,000.3,004.3,180310,,,A*70
$GPVTG,004.3,T,,M,000.3,N,000.5,K,N*03
$GPGGA,012312,3637.8827,N,13811.4093,E,1,05,02.5,00351.5,M,037.4,M,00,0000*41
$GPGSA,A,3,04,13,02,10,05,,,,,,,,04.4,02.5,03.5*03
$GPGSV,3,1,12,04,66,089,37,10,57,284,39,02,56,319,32,13,40,050,38*7D
$GPGSV,3,2,12,05,35,268,43,17,24,173,00,25,20,089,00,07,16,106,30*76
$GPGSV,3,3,12,23,14,040,30,08,06,139,00,12,04,272,00,30,00,299,00*7D
$GPRMC,012312,A,3637.8827,N,13811.4093,E,000.1,060.2,180310,,,A*7D
$GPVTG,060.2,T,,M,000.1,N,000.2,K,A*0A
$GPGGA,012327,3637.8844,N,13811.4088,E,1,05,02.5,00354.3,M,037.4,M,00,0000*4B
$GPGSA,A,3,04,13,02,10,05,,,,,,,,04.4,02.5,03.5*03
$GPGSV,3,1,12,04,66,089,32,10,57,285,42,02,56,319,41,13,40,050,39*70
$GPGSV,3,2,12,05,35,268,43,17,24,173,00,25,20,089,00,07,16,106,33*75
$GPGSV,3,3,12,23,14,040,27,08,06,139,00,12,04,271,00,30,00,298,00*79
$GPRMC,012327,A,3637.8844,N,13811.4088,E,000.1,173.3,180310,,,A*76
$GPVTG,173.3,T,,M,000.1,N,000.3,K,A*09
$GPGGA,012342,3637.8847,N,13811.4086,E,1,05,02.5,00360.4,M,037.4,M,00,0000*45
$GPGSA,A,3,04,13,02,10,05,,,,,,,,04.4,02.5,03.5*03
$GPGSV,3,1,12,04,66,089,29,10,57,285,43,02,56,319,36,13,40,050,37*75
$GPGSV,3,2,12,05,35,268,35,17,24,173,31,25,20,089,00,07,16,106,29*7D
$GPGSV,3,3,12,23,14,040,28,08,06,139,00,12,04,271,00,30,00,298,00*76
$GPRMC,012342,A,3637.8847,N,13811.4086,E,000.1,041.5,180310,,,A*7E
$GPVTG,041.5,T,,M,000.1,N,000.1,K,A*0D
$GPGGA,012357,3637.8881,N,13811.4069,E,1,04,06.3,00356.6,M,037.4,M,00,0000*4E
$GPGSA,A,3,13,02,10,05,,,,,,,,,08.6,06.3,05.8*00
$GPGSV,3,1,12,04,66,089,11,10,57,285,43,02,56,319,30,13,39,050,39*78
$GPGSV,3,2,12,05,35,268,43,17,23,173,30,25,20,089,00,07,17,106,30*73
$GPGSV,3,3,12,23,14,040,00,08,06,139,00,12,04,271,00,30,00,298,00*7C
$GPRMC,012357,A,3637.8881,N,13811.4069,E,000.3,141.1,180310,,,A*76
$GPVTG,141.1,T,,M,000.3,N,000.5,K,A*0E
$GPGGA,012412,3637.8878,N,13811.4047,E,1,05,03.2,00358.6,M,037.4,M,00,0000*49
$GPGSA,A,3,07,13,02,10,05,,,,,,,,06.4,03.2,05.5*02
$GPGSV,3,1,12,04,66,089,16,10,57,285,42,02,56,319,24,13,39,050,37*75
$GPGSV,3,2,12,05,35,268,42,17,23,173,29,25,20,089,00,07,17,106,31*7B
$GPGSV,3,3,12,23,14,040,00,08,06,139,00,12,04,271,00,30,00,298,00*7C
$GPRMC,012412,A,3637.8878,N,13811.4047,E,000.2,356.1,180310,,,A*7F
$GPVTG,356.1,T,,M,000.2,N,000.4,K,A*0A
$GPGGA,012428,3637.8974,N,13811.4006,E,1,06,01.9,00351.7,M,037.4,M,00,0000*4A
$GPGSA,A,3,10,05,02,13,07,04,,,,,,,03.1,01.9,02.4*09
$GPGSV,3,1,11,04,66,090,30,10,58,285,43,02,57,319,37,13,39,049,28*71
$GPGSV,3,2,11,05,35,268,36,07,17,106,31,17,23,173,00,25,20,089,00*70
$GPGSV,3,3,11,23,13,040,00,08,06,138,00,12,04,270,00,,,,*48
$GPRMC,012428,A,3637.8974,N,13811.4006,E,001.4,324.2,180310,,,A*7F
$GPVTG,324.2,T,,M,001.4,N,002.6,K,A*0B
$GPGGA,012442,3637.8810,N,13811.4091,E,1,06,01.9,00360.1,M,037.4,M,00,0000*4F
$GPGSA,A,3,10,05,02,13,07,04,,,,,,,03.1,01.9,02.4*09
$GPGSV,3,1,11,04,66,090,37,10,58,285,42,02,57,319,36,13,39,049,34*7B
$GPGSV,3,2,11,05,35,268,41,07,17,106,33,17,23,173,30,25,20,089,00*71
$GPGSV,3,3,11,23,13,040,29,08,06,138,00,12,04,270,00,,,,*43
$GPRMC,012442,A,3637.8810,N,13811.4091,E,000.1,165.4,180310,,,A*7B
$GPVTG,165.4,T,,M,000.1,N,000.3,K,A*09
$GPGGA,012458,3637.8784,N,13811.4084,E,1,05,02.5,00365.1,M,037.4,M,00,0000*4B
$GPGSA,A,3,13,05,10,02,04,,,,,,,,04.3,02.5,03.5*04
$GPGSV,3,1,12,04,66,090,34,10,58,286,43,02,57,320,37,13,39,049,41*70
$GPGSV,3,2,12,05,35,269,44,07,17,106,00,17,23,173,00,25,20,089,00*75
$GPGSV,3,3,12,23,13,040,00,08,06,138,00,12,04,270,00,29,00,327,00*76
$GPRMC,012458,A,3637.8784,N,13811.4084,E,000.2,162.7,180310,,,A*71
$GPVTG,162.7,T,,M,000.2,N,000.5,K,A*08
$GPGGA,012512,3637.8831,N,13811.4055,E,1,06,01.9,00362.5,M,037.4,M,00,0000*46
$GPGSA,A,3,13,05,10,02,04,07,,,,,,,03.1,01.9,02.4*09
$GPGSV,3,1,12,04,66,090,41,10,58,286,43,02,57,320,44,13,39,049,38*78
$GPGSV,3,2,12,05,35,269,45,07,17,106,32,17,23,173,32,25,20,089,00*74
$GPGSV,3,3,12,23,13,040,00,08,06,138,00,12,04,270,00,29,00,327,00*76
$GPRMC,012512,A,3637.8831,N,13811.4055,E,000.5,356.6,180310,,,A*70
$GPVTG,356.6,T,,M,000.5,N,000.9,K,A*07
$GPGGA,012528,3637.8848,N,13811.4063,E,1,06,01.9,00362.8,M,037.4,M,00,0000*49
$GPGSA,A,3,13,07,04,05,10,02,,,,,,,03.1,01.9,02.4*09
$GPGSV,3,1,12,04,66,091,38,10,58,286,36,02,57,320,35,13,39,049,40*7C
$GPGSV,3,2,12,05,35,269,38,07,17,105,40,17,23,173,00,25,21,088,00*79
$GPGSV,3,3,12,23,13,040,00,08,07,138,00,12,04,270,00,29,00,326,00*76
$GPRMC,012528,A,3637.8848,N,13811.4063,E,000.4,354.1,180310,,,A*76
$GPVTG,354.1,T,,M,000.4,N,000.7,K,A*0D
$GPGGA,012542,3637.8848,N,13811.4073,E,1,06,01.9,00365.1,M,037.4,M,00,0000*4A
$GPGSA,A,3,13,07,04,05,10,02,,,,,,,03.1,01.9,02.4*09
$GPGSV,3,1,12,04,66,091,37,10,58,286,40,02,57,320,35,13,39,049,41*73
$GPGSV,3,2,12,05,35,269,35,07,17,105,40,17,23,173,33,25,21,088,00*74
$GPGSV,3,3,12,23,13,040,32,08,07,138,00,12,04,270,00,29,00,326,00*77
$GPRMC,012542,A,3637.8848,N,13811.4073,E,000.1,056.7,180310,,,A*79
$GPVTG,056.7,T,,M,000.1,N,000.3,K,A*0B
$GPGGA,012558,3637.8834,N,13811.4068,E,1,06,01.9,00368.1,M,037.4,M,00,0000*4D
$GPGSA,A,3,05,10,13,07,04,02,,,,,,,03.1,01.9,02.4*09
$GPGSV,3,1,12,04,65,091,37,10,58,287,44,02,57,320,39,13,39,049,33*7C
$GPGSV,3,2,12,05,36,269,43,07,17,105,34,25,21,088,00,17,19,171,32*7F
$GPGSV,3,3,12,23,13,039,00,08,07,138,00,12,04,270,00,29,00,326,00*78
$GPRMC,012558,A,3637.8834,N,13811.4068,E,001.9,211.6,180310,,,A*7A
$GPVTG,211.6,T,,M,001.9,N,003.7,K,A*05
$GPGGA,012611,3637.8858,N,13811.4063,E,1,06,01.9,00368.9,M,037.4,M,00,0000*4A
$GPGSA,A,3,05,10,13,07,04,02,,,,,,,03.1,01.9,02.4*09
$GPGSV,3,1,12,04,65,091,43,10,58,287,43,02,57,320,44,13,39,049,39*78
$GPGSV,3,2,12,05,36,269,45,07,17,105,36,25,21,088,17,17,19,171,30*7F
$GPGSV,3,3,12,23,13,039,35,08,07,138,00,12,04,270,00,29,00,326,00*7E
$GPRMC,012611,A,3637.8858,N,13811.4063,E,000.0,086.9,180310,,,A*7E
$GPVTG,086.9,T,,M,000.0,N,000.1,K,A*0B
$GPGGA,012627,3637.8814,N,13811.4054,E,1,06,01.9,00369.8,M,037.4,M,00,0000*43
$GPGSA,A,3,02,05,04,10,13,07,,,,,,,03.1,01.9,02.4*09
$GPGSV,3,1,12,04,65,092,42,10,58,287,41,02,57,320,44,13,39,049,39*78
$GPGSV,3,2,12,05,36,269,43,07,17,105,39,25,21,088,00,17,19,171,30*70
$GPGSV,3,3,12,23,13,039,00,08,07,138,00,12,04,270,00,29,00,326,00*78
$GPRMC,012627,A,3637.8814,N,13811.4054,E,000.2,063.4,180310,,,A*73
$GPVTG,063.4,T,,M,000.2,N,000.4,K,A*0A
$GPGGA,012641,3637.8845,N,13811.4067,E,1,06,01.9,00367.0,M,037.4,M,00,0000*41
$GPGSA,A,3,02,05,04,10,13,07,,,,,,,03.1,01.9,02.4*09
$GPGSV,3,1,12,04,65,092,29,10,58,287,38,02,57,320,38,13,39,049,34*7D
$GPGSV,3,2,12,05,36,269,33,07,17,105,26,25,21,088,00,17,19,171,20*78
$GPGSV,3,3,12,23,13,039,21,08,07,138,00,12,04,270,00,29,00,326,00*7B
$GPRMC,012641,A,3637.8845,N,13811.4067,E,000.2,029.8,180310,,,A*75
$GPVTG,029.8,T,,M,000.2,N,000.4,K,A*08
$GPGGA,012656,3637.8863,N,13811.4053,E,1,06,01.9,00362.4,M,037.4,M,00,0000*45
$GPGSA,A,3,05,10,02,07,13,04,,,,,,,03.0,01.9,02.4*08
$GPGSV,3,1,12,04,65,092,28,10,58,287,31,02,58,320,34,13,38,049,30*73
$GPGSV,3,2,12,05,36,269,40,07,17,105,32,25,21,088,00,17,19,171,24*7D
$GPGSV,3,3,12,23,13,039,00,08,07,138,00,12,04,270,00,29,00,326,00*78
$GPRMC,012656,A,3637.8863,N,13811.4053,E,000.0,165.5,180310,,,A*76
$GPVTG,165.5,T,,M,000.0,N,000.1,K,A*0B
$GPGGA,012711,3637.8866,N,13811.4065,E,1,06,01.9,00357.1,M,037.4,M,00,0000*44
$GPGSA,A,3,05,10,02,07,13,04,,,,,,,03.0,01.9,02.4*08
$GPGSV,3,1,12,04,65,092,36,10,58,287,41,02,58,320,42,13,38,049,36*7C
$GPGSV,3,2,12,05,36,269,38,07,17,105,30,25,21,088,00,17,19,171,26*72
$GPGSV,3,3,12,23,13,039,29,08,07,138,00,12,04,270,00,29,00,326,00*73
$GPRMC,012711,A,3637.8866,N,13811.4065,E,000.0,351.6,180310,,,A*72
$GPVTG,351.6,T,,M,000.0,N,000.0,K,A*0C
$GPGGA,012727,3637.8864,N,13811.4040,E,1,04,02.6,00358.7,M,037.4,M,00,0000*43
$GPGSA,A,3,04,07,13,02,,,,,,,,,04.1,02.6,03.1*02
$GPGSV,3,1,12,04,65,093,38,10,58,288,00,02,58,320,28,13,38,048,34*76
$GPGSV,3,2,12,05,36,270,00,07,17,105,34,25,21,087,00,17,18,171,27*7A
$GPGSV,3,3,12,23,12,039,00,08,07,138,00,12,03,269,00,29,00,326,00*76
$GPRMC,012727,A,3637.8864,N,13811.4040,E,001.2,199.6,180310,,,A*77
$GPVTG,199.6,T,,M,001.2,N,002.3,K,A*08
$GPGGA,012741,3637.8902,N,13811.3839,E,1,06,01.9,00357.6,M,037.4,M,00,0000*43
$GPGSA,A,3,04,07,13,02,05,10,,,,,,,03.0,01.9,02.4*08
$GPGSV,3,1,12,04,65,093,32,10,58,288,33,02,58,320,47,13,38,048,39*78
$GPGSV,3,2,12,05,36,270,40,07,17,105,33,25,21,087,00,17,18,171,26*78
$GPGSV,3,3,12,23,12,039,27,08,07,138,14,12,03,269,00,29,00,326,00*76
$GPRMC,012741,A,3637.8902,N,13811.3839,E,003.0,359.8,180310,,,A*77
$GPVTG,359.8,T,,M,003.0,N,005.5,K,A*09
$GPGGA,012757,3637.9043,N,13811.3835,E,1,04,02.5,00364.0,M,037.4,M,00,0000*4E
$GPGSA,A,3,02,13,04,05,,,,,,,,,04.7,02.5,03.9*0D
$GPGSV,3,1,12,04,65,093,28,10,58,288,00,02,58,320,43,13,38,048,36*78
$GPGSV,3,2,12,05,36,270,29,07,18,104,00,25,21,087,00,17,18,171,25*7A
$GPGSV,3,3,12,23,12,039,00,08,07,137,00,12,03,269,00,29,01,326,00*78
$GPRMC,012757,A,3637.9043,N,13811.3835,E,003.2,007.7,180310,,,A*74
$GPVTG,007.7,T,,M,003.2,N,006.0,K,A*0A
$GPGGA,012811,3637.9189,N,13811.3660,E,1,06,01.9,00352.9,M,037.4,M,00,0000*4B
$GPGSA,A,3,02,13,04,05,10,07,,,,,,,03.0,01.9,02.4*08
$GPGSV,3,1,12,04,65,093,32,10,58,288,42,02,58,320,42,13,38,048,30*72
$GPGSV,3,2,12,05,36,270,39,07,18,104,30,25,21,087,00,17,18,171,29*74
$GPGSV,3,3,12,23,12,039,25,08,07,137,00,12,03,269,26,29,01,326,00*7B
$GPRMC,012811,A,3637.9189,N,13811.3660,E,012.4,269.7,180310,,,A*7C
$GPVTG,269.7,T,,M,012.4,N,022.9,K,A*09
$GPGGA,012827,3637.9201,N,13811.3110,E,1,06,01.9,00349.9,M,037.4,M,00,0000*47
$GPGSA,A,3,02,10,05,13,04,07,,,,,,,03.0,01.9,02.4*08
$GPGSV,3,1,12,04,65,094,30,10,59,289,40,02,58,320,41,13,38,048,32*74
$GPGSV,3,2,12,05,36,270,37,07,18,104,27,25,21,087,00,17,18,171,29*7C
$GPGSV,3,3,12,23,12,039,00,08,07,137,00,12,03,269,00,29,01,326,00*78
$GPRMC,012827,A,3637.9201,N,13811.3110,E,011.6,277.7,180310,,,A*74
$GPVTG,277.7,T,,M,011.6,N,021.5,K,A*08
$GPGGA,012841,3637.9194,N,13811.2345,E,1,06,01.9,00353.1,M,037.4,M,00,0000*48
$GPGSA,A,3,02,10,05,13,04,07,,,,,,,03.0,01.9,02.4*08
$GPGSV,3,1,12,04,65,094,28,10,59,289,40,02,58,320,42,13,38,048,26*7B
$GPGSV,3,2,12,05,36,270,40,07,18,104,31,25,21,087,00,17,18,171,30*73
$GPGSV,3,3,12,23,12,039,24,08,07,137,00,12,03,269,19,29,01,326,00*76
$GPRMC,012841,A,3637.9194,N,13811.2345,E,016.8,269.5,180310,,,A*7C
$GPVTG,269.5,T,,M,016.8,N,031.2,K,A*0A
$GPGGA,012857,3637.9191,N,13811.1331,E,1,06,01.8,00357.5,M,037.4,M,00,0000*4B
$GPGSA,A,3,10,02,05,04,07,13,,,,,,,03.0,01.8,02.4*09
$GPGSV,3,1,12,04,64,094,30,10,59,289,38,02,58,321,39,13,38,048,22*75
$GPGSV,3,2,12,05,36,270,38,07,18,104,30,25,21,087,00,17,18,171,00*7E
$GPGSV,3,3,12,23,11,039,00,08,08,137,00,12,03,269,00,29,01,326,00*74
$GPRMC,012857,A,3637.9191,N,13811.1331,E,020.2,268.1,180310,,,A*74
$GPVTG,268.1,T,,M,020.2,N,037.5,K,A*01
$GPGGA,012911,3637.9216,N,13811.0415,E,1,06,01.8,00359.5,M,037.4,M,00,0000*4A
$GPGSA,A,3,10,02,05,04,07,13,,,,,,,03.0,01.8,02.4*09
$GPGSV,3,1,12,04,64,094,27,10,59,289,39,02,58,321,35,13,38,048,33*7E
$GPGSV,3,2,12,05,36,270,38,07,18,104,34,25,21,087,00,17,18,171,25*7D
$GPGSV,3,3,12,23,11,039,18,08,08,137,00,12,03,269,00,29,01,326,00*7D
$GPRMC,012911,A,3637.9216,N,13811.0415,E,016.1,281.0,180310,,,A*7B
$GPVTG,281.0,T,,M,016.1,N,029.9,K,A*02
$GPGGA,012927,3637.9303,N,13810.9859,E,1,06,01.8,00359.7,M,037.4,M,00,0000*44
$GPGSA,A,3,05,02,07,10,13,04,,,,,,,03.0,01.8,02.4*09
$GPGSV,3,1,12,04,64,095,29,10,59,289,39,02,59,321,36,13,37,048,30*7F
$GPGSV,3,2,12,05,37,271,38,07,18,104,36,25,21,086,00,17,17,171,00*76
$GPGSV,3,3,12,23,11,039,36,08,08,137,00,12,03,269,00,29,01,326,00*71
$GPRMC,012927,A,3637.9303,N,13810.9859,E,001.3,223.0,180310,,,A*7B
$GPVTG,223.0,T,,M,001.3,N,002.4,K,A*0A
$GPGGA,012941,3637.9236,N,13810.9862,E,1,06,01.8,00353.6,M,037.4,M,00,0000*40
$GPGSA,A,3,05,02,07,10,13,04,,,,,,,03.0,01.8,02.4*09
$GPGSV,3,1,12,04,64,095,30,10,59,289,42,02,59,321,37,13,37,048,34*7E
$GPGSV,3,2,12,05,37,271,39,07,18,104,34,25,21,086,00,17,17,171,00*75
$GPGSV,3,3,12,23,11,039,36,08,08,137,22,12,03,269,00,29,01,326,00*71
$GPRMC,012941,A,3637.9236,N,13810.9862,E,000.2,291.6,180310,,,A*7B
$GPVTG,291.6,T,,M,000.2,N,000.5,K,A*06
$GPGGA,012957,3637.9103,N,13810.9437,E,1,04,06.2,00347.7,M,037.4,M,00,0000*45
$GPGSA,A,3,02,13,10,05,,,,,,,,,06.2,06.2,00.9*0F
$GPGSV,3,1,11,04,64,095,00,10,59,290,36,02,59,321,35,13,37,048,31*72
$GPGSV,3,2,11,05,37,271,37,07,18,104,00,17,17,171,29,23,11,039,00*75
$GPGSV,3,3,11,08,08,137,00,12,03,268,00,29,01,326,00,,,,*4D
$GPRMC,012957,A,3637.9103,N,13810.9437,E,008.6,273.5,180310,,,A*76
$GPVTG,273.5,T,,M,008.6,N,016.0,K,N*08
$GPGGA,013011,3637.9475,N,13810.8340,E,1,06,01.8,00352.5,M,037.4,M,00,0000*44
$GPGSA,A,3,02,13,10,05,04,07,,,,,,,03.0,01.8,02.4*09
$GPGSV,3,1,11,04,64,095,41,10,59,290,41,02,59,321,40,13,37,048,41*72
$GPGSV,3,2,11,05,37,271,47,07,18,104,34,17,17,171,33,23,11,039,29*75
$GPGSV,3,3,11,08,08,137,22,12,03,268,00,29,01,326,00,,,,*4D
$GPRMC,013011,A,3637.9475,N,13810.8340,E,023.4,275.7,180310,,,A*71
$GPVTG,275.7,T,,M,023.4,N,043.5,K,A*0D
$GPGGA,013027,3637.9489,N,13810.7280,E,1,06,01.8,00348.6,M,037.4,M,00,0000*48
$GPGSA,A,3,10,02,04,13,07,05,,,,,,,03.0,01.8,02.4*09
$GPGSV,3,1,11,04,64,096,29,02,59,321,36,10,59,290,36,13,37,047,28*7E
$GPGSV,3,2,11,05,37,271,35,07,18,103,29,17,17,171,34,23,11,039,31*75
$GPGSV,3,3,11,08,08,137,00,12,03,268,00,29,01,326,00,,,,*4D
$GPRMC,013027,A,3637.9489,N,13810.7280,E,010.5,276.8,180310,,,A*78
$GPVTG,276.8,T,,M,010.5,N,019.6,K,A*0C
$GPGGA,013041,3637.9572,N,13810.7239,E,1,06,01.8,00364.5,M,037.4,M,00,0000*42
$GPGSA,A,3,10,02,04,13,07,05,,,,,,,03.0,01.8,02.4*09
$GPGSV,3,1,11,04,64,096,35,02,59,321,37,10,59,290,39,13,37,047,34*70
$GPGSV,3,2,11,05,37,271,40,07,18,103,32,17,17,171,30,23,11,039,28*71
$GPGSV,3,3,11,08,08,137,33,12,03,268,00,29,01,326,00,,,,*4D
$GPRMC,013041,A,3637.9572,N,13810.7239,E,002.3,279.6,180310,,,A*7B
$GPVTG,279.6,T,,M,002.3,N,004.2,K,A*00
$GPGGA,013057,3637.9667,N,13810.7051,E,1,05,03.6,00357.8,M,037.4,M,00,0000*4C
$GPGSA,A,3,10,02,05,04,07,,,,,,,,04.6,03.6,02.8*0A
$GPGSV,3,1,11,04,64,096,38,02,59,321,39,10,59,291,42,05,37,271,38*72
$GPGSV,3,2,11,13,37,047,00,07,18,103,35,17,17,171,32,23,11,039,30*79
$GPGSV,3,3,11,08,08,136,00,12,03,268,00,29,02,326,00,,,,*4F
$GPRMC,013057,A,3637.9667,N,13810.7051,E,007.5,261.9,180310,,,A*72
$GPVTG,261.9,T,,M,007.5,N,013.9,K,A*08
$GPGGA,013111,3637.9667,N,13810.6245,E,1,06,01.8,00368.9,M,037.4,M,00,0000*4B
$GPGSA,A,3,10,02,05,04,07,13,,,,,,,03.0,01.8,02.4*09
$GPGSV,3,1,11,04,64,096,39,02,59,321,40,10,59,291,43,05,37,271,39*7D
$GPGSV,3,2,11,13,37,047,23,07,18,103,35,17,17,171,35,23,11,039,21*7F
$GPGSV,3,3,11,08,08,136,00,12,03,268,00,29,02,326,00,,,,*4F
$GPRMC,013111,A,3637.9667,N,13810.6245,E,016.8,277.7,180310,,,A*73
$GPVTG,277.7,T,,M,016.8,N,031.2,K,A*07
$GPGGA,013127,3637.9656,N,13810.5871,E,1,05,02.4,00357.0,M,037.4,M,00,0000*4B
$GPGSA,A,3,10,02,13,04,05,,,,,,,,04.3,02.4,03.5*05
$GPGSV,3,1,11,04,64,096,33,02,60,321,36,10,59,291,42,05,37,272,33*74
$GPGSV,3,2,11,13,37,047,34,07,18,103,00,17,17,171,28,23,11,039,33*70
$GPGSV,3,3,11,08,08,136,00,12,03,268,00,29,02,326,00,,,,*4F
$GPRMC,013127,A,3637.9656,N,13810.5871,E,000.8,294.4,180310,,,A*73
$GPVTG,294.4,T,,M,000.8,N,001.5,K,A*0A
$GPGGA,013142,3637.9682,N,13810.5636,E,1,06,01.8,00349.2,M,037.4,M,00,0000*4D
$GPGSA,A,3,10,02,13,04,05,07,,,,,,,03.0,01.8,02.4*09
$GPGSV,3,1,11,04,64,097,33,02,60,321,37,10,59,291,42,05,37,272,36*71
$GPGSV,3,2,11,13,37,047,36,07,18,103,32,17,17,171,36,23,10,039,26*79
$GPGSV,3,3,11,08,08,136,00,12,03,268,00,29,02,326,00,,,,*4F
$GPRMC,013142,A,3637.9682,N,13810.5636,E,015.5,277.9,180310,,,A*7D
$GPVTG,277.9,T,,M,015.5,N,028.8,K,A*05
$GPGGA,013157,3637.9788,N,13810.4567,E,1,06,01.8,00351.0,M,037.4,M,00,0000*4F
$GPGSA,A,3,10,05,02,04,07,13,,,,,,,03.0,01.8,02.4*09
$GPGSV,3,1,11,04,64,097,35,02,60,321,37,10,59,292,41,05,37,272,39*78
$GPGSV,3,2,11,13,36,047,37,07,19,103,32,17,16,171,26,23,10,039,29*77
$GPGSV,3,3,11,08,09,136,00,12,03,268,00,29,02,326,00,,,,*4E
$GPRMC,013157,A,3637.9788,N,13810.4567,E,024.4,279.1,180310,,,A*71
$GPVTG,279.1,T,,M,024.4,N,045.2,K,A*01
$GPGGA,013211,3637.9934,N,13810.3359,E,1,06,01.8,00353.9,M,037.4,M,00,0000*40
$GPGSA,A,3,10,05,02,04,07,13,,,,,,,03.0,01.8,02.4*09
$GPGSV,3,1,11,04,63,097,31,02,60,321,44,10,59,292,44,05,37,272,40*74
$GPGSV,3,2,11,13,36,047,30,07,19,103,25,17,16,171,19,23,10,039,26*75
$GPGSV,3,3,11,08,09,136,00,12,03,268,00,29,02,326,00,,,,*4E
$GPRMC,013211,A,3637.9934,N,13810.3359,E,022.4,269.1,180310,,,A*72
$GPVTG,269.1,T,,M,022.4,N,041.5,K,A*05
$GPGGA,013227,3637.9877,N,13810.2058,E,1,06,01.8,00356.1,M,037.4,M,00,0000*4D
$GPGSA,A,3,10,02,04,05,07,13,,,,,,,03.0,01.8,02.4*09
$GPGSV,3,1,11,04,63,097,36,02,60,321,36,10,60,292,42,05,38,272,38*7A
$GPGSV,3,2,11,13,36,047,31,07,19,103,30,17,16,171,25,23,10,039,00*7B
$GPGSV,3,3,11,08,09,136,00,12,02,267,00,29,02,326,00,,,,*40
$GPRMC,013227,A,3637.9877,N,13810.2058,E,023.6,264.3,180310,,,A*7E
$GPVTG,264.3,T,,M,023.6,N,043.8,K,A*06
$GPGGA,013242,3637.9728,N,13810.0910,E,1,06,01.8,00357.1,M,037.4,M,00,0000*4D
$GPGSA,A,3,10,02,04,05,07,13,,,,,,,03.0,01.8,02.4*09
$GPGSV,3,1,11,04,63,097,38,02,60,321,37,10,60,292,36,05,38,272,39*77
$GPGSV,3,2,11,13,36,047,33,07,19,103,37,17,16,171,26,23,10,039,26*79
$GPGSV,3,3,11,08,09,136,00,12,02,267,00,29,02,326,00,,,,*40
$GPRMC,013242,A,3637.9728,N,13810.0910,E,019.7,257.7,180310,,,A*73
$GPVTG,257.7,T,,M,019.7,N,036.6,K,A*06
$GPGGA,013257,3637.9482,N,13810.0536,E,1,06,01.8,00357.6,M,037.4,M,00,0000*45
$GPGSA,A,3,10,02,04,05,07,13,,,,,,,03.0,01.8,02.4*09
$GPGSV,3,1,11,04,63,097,41,02,60,322,33,10,60,292,28,05,38,272,33*7B
$GPGSV,3,2,11,13,36,047,39,07,19,102,32,17,16,171,38,23,10,039,23*7D
$GPGSV,3,3,11,08,09,136,00,12,02,267,00,29,02,326,00,,,,*40
$GPRMC,013257,A,3637.9482,N,13810.0536,E,012.6,161.5,180310,,,A*72
$GPVTG,161.5,T,,M,012.6,N,023.4,K,A*0E
$GPGGA,013312,3637.8818,N,13810.0829,E,1,06,01.8,00362.3,M,037.4,M,00,0000*4B
$GPGSA,A,3,10,02,04,05,07,13,,,,,,,03.0,01.8,02.4*09
$GPGSV,3,1,11,04,63,098,39,02,60,322,34,10,60,293,36,05,38,272,35*74
$GPGSV,3,2,11,13,36,047,36,07,19,102,25,17,16,171,38,23,10,039,23*74
$GPGSV,3,3,11,08,09,136,00,29,03,325,00,12,02,267,00,,,,*42
$GPRMC,013312,A,3637.8818,N,13810.0829,E,020.0,170.5,180310,,,A*78
$GPVTG,170.5,T,,M,020.0,N,037.1,K,A*09
$GPGGA,013328,3637.8365,N,13810.0670,E,1,06,01.8,00348.6,M,037.4,M,00,0000*4C
$GPGSA,A,3,10,05,02,13,07,04,,,,,,,03.0,01.8,02.4*09
$GPGSV,3,1,11,04,63,098,28,02,60,322,38,10,60,293,41,05,38,272,40*7A
$GPGSV,3,2,11,13,36,047,34,07,19,102,31,17,16,171,00,23,10,039,00*79
$GPGSV,3,3,11,08,09,136,00,29,03,325,00,12,02,267,00,,,,*42
$GPRMC,013328,A,3637.8365,N,13810.0670,E,014.3,196.9,180310,,,A*72
$GPVTG,196.9,T,,M,014.3,N,026.6,K,A*0E
$GPGGA,013342,3637.8152,N,13809.9900,E,1,06,01.8,00352.4,M,037.4,M,00,0000*46
$GPGSA,A,3,10,05,02,13,07,04,,,,,,,03.0,01.8,02.4*09
$GPGSV,3,1,11,04,63,098,36,02,61,322,37,10,60,293,34,05,38,273,32*7D
$GPGSV,3,2,11,13,36,047,33,07,19,102,31,17,16,170,24,23,10,039,25*7E
$GPGSV,3,3,11,08,09,136,00,29,03,325,00,12,02,267,00,,,,*42
$GPRMC,013342,A,3637.8152,N,13809.9900,E,016.9,246.8,180310,,,A*76
$GPVTG,246.8,T,,M,016.9,N,031.3,K,A*0A
$GPGGA,013357,3637.7760,N,13809.8999,E,1,05,03.8,00363.5,M,037.4,M,00,0000*49
$GPGSA,A,3,04,10,02,05,07,,,,,,,,04.7,03.8,02.8*05
$GPGSV,3,1,11,04,63,098,38,02,61,322,31,10,60,293,33,05,38,273,35*75
$GPGSV,3,2,11,13,36,046,27,07,19,102,30,17,16,170,24,23,10,039,27*79
$GPGSV,3,3,11,08,09,135,00,29,03,325,00,12,02,267,00,,,,*41
$GPRMC,013357,A,3637.7760,N,13809.8999,E,020.2,254.1,180310,,,A*7F
$GPVTG,254.1,T,,M,020.2,N,037.4,K,A*0F
$GPGGA,013412,3637.7621,N,13809.7975,E,1,06,01.8,00359.5,M,037.4,M,00,0000*4E
$GPGSA,A,3,04,13,10,02,05,07,,,,,,,03.0,01.8,02.4*09
$GPGSV,3,1,11,04,63,098,31,02,61,322,33,10,60,293,40,05,38,273,36*79
$GPGSV,3,2,11,13,36,046,30,07,19,102,32,17,16,170,00,23,10,039,22*7E
$GPGSV,3,3,11,08,09,135,25,29,03,325,00,12,02,267,00,,,,*46
$GPRMC,013412,A,3637.7621,N,13809.7975,E,021.2,262.3,180310,,,A*76
$GPVTG,262.3,T,,M,021.2,N,039.2,K,A*01
$GPGGA,013427,3637.7612,N,13809.6954,E,1,06,01.8,00361.7,M,037.4,M,00,0000*43
$GPGSA,A,3,10,05,02,13,04,07,,,,,,,03.0,01.8,02.4*09
$GPGSV,3,1,11,04,63,099,34,02,61,322,38,10,60,294,43,05,38,273,39*7D
$GPGSV,3,2,11,13,36,046,35,07,19,102,34,17,15,170,28,23,09,039,34*7B
$GPGSV,3,3,11,08,09,135,19,29,03,325,00,12,02,267,00,,,,*49
$GPRMC,013427,A,3637.7612,N,13809.6954,E,016.5,278.3,180310,,,A*7A
$GPVTG,278.3,T,,M,016.5,N,030.6,K,A*04
$GPGGA,013442,3637.7643,N,13809.6715,E,1,06,01.8,00362.7,M,037.4,M,00,0000*4C
$GPGSA,A,3,10,05,02,13,04,07,,,,,,,03.0,01.8,02.4*09
$GPGSV,3,1,11,04,63,099,33,02,61,322,43,10,60,294,42,05,38,273,36*78
$GPGSV,3,2,11,13,35,046,37,07,19,102,31,17,15,170,32,08,09,135,25*70
$GPGSV,3,3,11,23,09,039,29,29,03,325,00,12,02,267,00,,,,*4E
$GPRMC,013442,A,3637.7643,N,13809.6715,E,004.0,315.9,180310,,,A*70
$GPVTG,315.9,T,,M,004.0,N,007.5,K,A*05
$GPGGA,013457,3637.7887,N,13809.6804,E,1,04,02.4,00364.3,M,037.4,M,00,0000*4E
$GPGSA,A,3,02,04,10,13,,,,,,,,,02.6,02.4,00.9*0C
$GPGSV,3,1,11,04,63,099,33,02,61,322,41,10,60,294,30,05,38,273,00*7A
$GPGSV,3,2,11,13,35,046,22,07,19,102,00,17,15,170,34,08,10,135,29*74
$GPGSV,3,3,11,23,09,039,21,29,03,325,00,12,02,267,00,,,,*46
$GPRMC,013457,A,3637.7887,N,13809.6804,E,006.6,026.2,180310,,,A*71
$GPVTG,026.2,T,,M,006.6,N,012.2,K,A*0A
$GPGGA,013512,3637.7859,N,13809.6782,E,1,06,01.8,00391.8,M,037.4,M,00,0000*40
$GPGSA,A,3,02,04,10,13,05,07,,,,,,,03.0,01.8,02.4*09
$GPGSV,3,1,11,04,63,099,33,02,61,322,43,10,60,294,32,05,38,273,24*7C
$GPGSV,3,2,11,13,35,046,25,07,19,102,29,17,15,170,35,08,10,135,28*78
$GPGSV,3,3,11,23,09,039,22,29,03,325,00,12,02,267,00,,,,*45
$GPRMC,013512,A,3637.7859,N,13809.6782,E,000.4,132.2,180310,,,A*73
$GPVTG,132.2,T,,M,000.4,N,000.8,K,A*03
$GPGGA,013527,3637.7832,N,13809.6794,E,1,05,02.3,00405.1,M,037.4,M,00,0000*44
$GPGSA,A,3,02,04,10,13,07,,,,,,,,04.0,02.3,03.3*05
$GPGSV,3,1,11,04,62,100,32,02,61,322,43,10,60,294,32,05,38,273,18*72
$GPGSV,3,2,11,13,35,046,29,07,19,101,27,17,15,170,34,08,10,135,29*79
$GPGSV,3,3,11,23,09,039,22,29,03,325,00,12,02,266,00,,,,*44
$GPRMC,013527,A,3637.7832,N,13809.6794,E,000.3,107.3,180310,,,A*7F
$GPVTG,107.3,T,,M,000.3,N,000.6,K,A*0D
$GPGGA,013538,3637.7782,N,13809.6779,E,1,07,01.3,00397.8,M,037.4,M,00,0000*49
$GPGSA,A,3,02,04,10,13,17,05,07,,,,,,02.6,01.3,02.3*04
$GPGSV,3,1,11,04,62,100,38,02,61,322,43,10,60,295,34,05,38,273,19*7E
$GPGSV,3,2,11,13,35,046,31,07,19,101,32,17,15,170,21,08,10,135,24*7D
$GPGSV,3,3,11,23,09,039,22,29,03,325,00,12,02,266,00,,,,*44
$GPRMC,013538,A,3637.7782,N,13809.6779,E,000.3,165.0,180310,,,A*71
$GPVTG,165.0,T,,M,000.3,N,000.5,K,A*09
$GPGGA,013549,3637.7799,N,13809.6767,E,1,05,02.3,00396.2,M,037.4,M,00,0000*40
$GPGSA,A,3,02,04,10,07,13,,,,,,,,04.0,02.3,03.3*05
$GPGSV,3,1,11,04,62,100,36,02,61,322,40,10,60,295,35,05,38,273,00*7A
$GPGSV,3,2,11,13,35,046,32,07,19,101,33,17,15,170,00,08,10,135,00*7A
$GPGSV,3,3,11,23,09,039,00,29,03,325,00,12,02,266,00,,,,*44
$GPRMC,013549,A,3637.7799,N,13809.6767,E,000.6,313.5,180310,,,A*71
$GPVTG,313.5,T,,M,000.6,N,001.2,K,A*0C
$GPGGA,013612,3637.7996,N,13809.6674,E,1,07,01.3,00357.3,M,037.4,M,00,0000*42
$GPGSA,A,3,04,17,02,07,10,05,13,,,,,,02.6,01.3,02.3*04
$GPGSV,3,1,11,04,62,100,36,02,62,322,38,10,60,295,34,05,39,274,36*74
$GPGSV,3,2,11,13,35,046,38,07,19,101,31,17,15,170,20,08,10,135,00*70
$GPGSV,3,3,11,23,09,039,26,29,03,325,00,12,02,266,00,,,,*40
$GPRMC,013612,A,3637.7996,N,13809.6674,E,007.4,354.3,180310,,,A*7E
$GPVTG,354.3,T,,M,007.4,N,013.7,K,A*0A
$GPGGA,013621,3637.8210,N,13809.6648,E,1,07,01.3,00356.4,M,037.4,M,00,0000*41
$GPGSA,A,3,02,04,05,10,07,13,17,,,,,,02.6,01.3,02.3*04
$GPGSV,3,1,11,04,62,100,39,02,62,322,39,10,60,295,35,05,39,274,37*7A
$GPGSV,3,2,11,13,35,046,35,07,20,101,31,17,15,170,27,08,10,135,00*70
$GPGSV,3,3,11,23,09,039,00,29,04,325,00,12,02,266,00,,,,*43
$GPRMC,013621,A,3637.8210,N,13809.6648,E,006.8,352.8,180310,,,A*7B
$GPVTG,352.8,T,,M,006.8,N,012.6,K,A*0A
$GPGGA,013636,3637.8302,N,13809.6657,E,1,07,01.3,00352.4,M,037.4,M,00,0000*4F
$GPGSA,A,3,02,04,13,10,05,17,07,,,,,,02.6,01.3,02.3*04
$GPGSV,3,1,11,04,62,100,38,02,62,322,39,10,60,295,32,05,39,274,31*7A
$GPGSV,3,2,11,13,35,046,36,07,20,101,26,17,15,170,28,08,10,135,26*7E
$GPGSV,3,3,11,23,09,039,00,29,04,325,00,12,02,266,00,,,,*43
$GPRMC,013636,A,3637.8302,N,13809.6657,E,000.2,025.3,180310,,,A*75
$GPVTG,025.3,T,,M,000.2,N,000.5,K,A*0E
$GPGGA,013651,3637.8302,N,13809.6627,E,1,07,01.3,00350.9,M,037.4,M,00,0000*46
$GPGSA,A,3,04,02,13,10,05,17,07,,,,,,02.6,01.3,02.2*05
$GPGSV,3,1,11,04,62,100,38,02,62,322,38,10,60,295,35,05,39,274,33*7E
$GPGSV,3,2,11,13,35,046,36,07,20,101,27,17,15,170,28,08,10,135,29*70
$GPGSV,3,3,11,23,09,039,00,29,04,325,00,12,02,266,00,,,,*43
$GPRMC,013651,A,3637.8302,N,13809.6627,E,000.1,111.0,180310,,,A*75
$GPVTG,111.0,T,,M,000.1,N,000.2,K,A*0F
$GPGGA,013706,3637.8279,N,13809.6624,E,1,07,01.3,00348.9,M,037.4,M,00,0000*42
$GPGSA,A,3,04,02,13,05,10,17,07,,,,,,02.6,01.3,02.2*05
$GPGSV,3,1,11,04,62,100,38,02,62,322,39,10,60,295,35,05,39,274,35*79
$GPGSV,3,2,11,13,35,046,37,07,20,101,28,17,15,170,32,08,10,135,29*75
$GPGSV,3,3,11,23,09,039,00,29,04,325,00,12,02,266,00,,,,*43
$GPRMC,013706,A,3637.8279,N,13809.6624,E,000.8,187.4,180310,,,A*7A
$GPVTG,187.4,T,,M,000.8,N,001.6,K,A*08
$GPGGA,013721,3637.8429,N,13809.6458,E,1,07,01.3,00356.6,M,037.4,M,00,0000*4D
$GPGSA,A,3,04,13,07,17,10,02,05,,,,,,02.6,01.3,02.2*05
$GPGSV,3,1,11,04,62,100,36,02,62,322,34,10,60,295,34,05,39,274,25*7A
$GPGSV,3,2,11,13,35,046,32,07,20,101,30,17,15,170,30,08,10,135,32*71
$GPGSV,3,3,11,23,09,039,00,29,04,325,00,12,02,266,00,,,,*43
$GPRMC,013721,A,3637.8429,N,13809.6458,E,006.1,325.2,180310,,,A*76
$GPVTG,325.2,T,,M,006.1,N,011.3,K,A*0F
$GPGGA,013736,3637.8132,N,13809.5826,E,1,07,01.3,00362.4,M,037.4,M,00,0000*47
$GPGSA,A,3,10,13,04,17,07,02,05,,,,,,02.6,01.3,02.2*05
$GPGSV,3,1,11,04,62,100,36,02,62,322,32,10,60,295,41,05,39,274,30*7A
$GPGSV,3,2,11,13,35,046,38,07,20,101,34,17,15,170,34,08,10,135,25*7D
$GPGSV,3,3,11,23,09,039,00,29,04,325,00,12,02,266,00,,,,*43
$GPRMC,013736,A,3637.8132,N,13809.5826,E,019.8,244.2,180310,,,A*78
$GPVTG,244.2,T,,M,019.8,N,036.7,K,A*0F
$GPGGA,013751,3637.7745,N,13809.4882,E,1,07,01.3,00353.2,M,037.4,M,00,0000*44
$GPGSA,A,3,10,13,04,02,05,07,17,,,,,,02.6,01.3,02.2*05
$GPGSV,3,1,11,04,62,100,37,02,62,322,33,10,60,295,41,05,39,274,31*7B
$GPGSV,3,2,11,13,35,046,38,07,20,101,29,17,15,170,24,08,10,135,00*77
$GPGSV,3,3,11,23,09,039,00,29,04,325,00,12,02,266,00,,,,*43
$GPRMC,013751,A,3637.7745,N,13809.4882,E,020.8,241.8,180310,,,A*7A
$GPVTG,241.8,T,,M,020.8,N,038.6,K,A*05
$GPGGA,013806,3637.7304,N,13809.3889,E,1,07,01.3,00356.2,M,037.4,M,00,0000*41
$GPGSA,A,3,10,13,04,02,07,05,17,,,,,,02.6,01.3,02.2*05
$GPGSV,3,1,11,04,62,100,36,02,62,322,37,10,60,295,39,05,39,274,28*79
$GPGSV,3,2,11,13,35,046,36,07,20,101,32,17,15,170,26,08,10,135,32*70
$GPGSV,3,3,11,23,09,039,26,29,04,325,00,12,02,266,00,,,,*47
$GPRMC,013806,A,3637.7304,N,13809.3889,E,023.2,243.2,180310,,,A*7B
$GPVTG,243.2,T,,M,023.2,N,043.0,K,A*0E
$GPGGA,013821,3637.7048,N,13809.2927,E,1,06,01.4,00358.8,M,037.4,M,00,0000*49
$GPGSA,A,3,04,10,05,02,13,17,,,,,,,02.7,01.4,02.4*02
$GPGSV,3,1,11,04,62,100,37,02,62,322,32,10,60,295,34,05,39,274,34*7D
$GPGSV,3,2,11,13,35,046,31,07,20,101,00,17,15,170,25,08,10,135,22*74
$GPGSV,3,3,11,23,09,039,00,29,04,325,00,12,02,266,00,,,,*43
$GPRMC,013821,A,3637.7048,N,13809.2927,E,014.7,244.6,180310,,,A*73
$GPVTG,244.6,T,,M,014.7,N,027.2,K,A*0C
$GPGGA,013836,3637.6960,N,13809.2395,E,1,07,01.3,00345.4,M,037.4,M,00,0000*48
$GPGSA,A,3,04,10,07,13,02,17,05,,,,,,02.6,01.3,02.2*05
$GPGSV,3,1,11,04,62,100,38,02,62,322,34,10,60,295,37,05,39,274,29*7B
$GPGSV,3,2,11,13,35,046,34,07,20,101,35,17,15,170,32,08,10,135,00*71
$GPGSV,3,3,11,23,09,039,00,29,04,325,00,12,02,266,00,,,,*43
$GPRMC,013836,A,3637.6960,N,13809.2395,E,007.0,254.5,180310,,,A*73
$GPVTG,254.5,T,,M,007.0,N,013.0,K,A*0E
$GPGGA,013851,3637.6936,N,13809.2253,E,1,07,01.3,00323.7,M,037.4,M,00,0000*42
$GPGSA,A,3,04,02,07,10,05,17,13,,,,,,02.6,01.3,02.2*05
$GPGSV,3,1,11,04,62,100,39,02,62,322,36,10,60,295,36,05,39,274,34*75
$GPGSV,3,2,11,13,35,046,27,07,20,101,36,17,15,170,32,08,10,135,24*76
$GPGSV,3,3,11,23,09,039,00,29,04,325,00,12,02,266,00,,,,*43
$GPRMC,013851,A,3637.6936,N,13809.2253,E,003.3,256.1,180310,,,A*7B
$GPVTG,256.1,T,,M,003.3,N,006.2,K,A*09
$GPGGA,013906,3637.6832,N,13809.1546,E,1,07,01.3,00341.1,M,037.4,M,00,0000*46
$GPGSA,A,3,02,04,10,13,05,17,07,,,,,,02.6,01.3,02.2*05
$GPGSV,3,1,11,04,62,100,37,02,62,322,40,10,60,295,37,05,39,274,35*7A
$GPGSV,3,2,11,13,35,046,35,07,20,101,27,17,15,170,33,08,10,135,23*73
$GPGSV,3,3,11,23,09,039,00,29,04,325,00,12,02,266,00,,,,*43
$GPRMC,013906,A,3637.6832,N,13809.1546,E,021.1,259.9,180310,,,A*78
$GPVTG,259.9,T,,M,021.1,N,039.1,K,A*03
$GPGGA,013921,3637.6550,N,13809.0261,E,1,07,01.3,00365.3,M,037.4,M,00,0000*4D
$GPGSA,A,3,05,10,13,04,17,02,07,,,,,,02.6,01.3,02.2*05
$GPGSV,3,1,11,02,63,323,27,10,61,298,39,04,61,103,33,05,40,275,39*7E
$GPGSV,3,2,11,13,34,045,38,07,20,100,25,17,13,170,30,08,11,134,33*7B
$GPGSV,3,3,11,23,08,039,00,29,05,325,00,12,01,265,00,,,,*43
$GPRMC,013921,A,3637.6550,N,13809.0261,E,025.9,243.2,180310,,,A*7B
$GPVTG,243.2,T,,M,025.9,N,048.1,K,A*09
$GPGGA,013936,3637.5893,N,13808.9143,E,1,07,01.3,00372.3,M,037.4,M,00,0000*47
$GPGSA,A,3,10,04,02,13,07,17,05,,,,,,02.6,01.3,02.2*05
$GPGSV,3,1,11,02,63,323,36,10,61,298,41,04,61,103,39,05,40,275,24*77
$GPGSV,3,2,11,13,34,045,31,07,20,100,30,17,13,170,23,08,11,134,00*74
$GPGSV,3,3,11,23,08,039,00,29,05,325,00,12,01,265,00,,,,*43
$GPRMC,013936,A,3637.5893,N,13808.9143,E,027.7,241.6,180310,,,A*7D
$GPVTG,241.6,T,,M,027.7,N,051.3,K,A*09
$GPGGA,013951,3637.5413,N,13808.7790,E,1,06,01.4,00394.4,M,037.4,M,00,0000*4D
$GPGSA,A,3,10,02,04,13,17,05,,,,,,,02.7,01.4,02.3*05
$GPGSV,3,1,11,02,63,323,39,10,61,298,41,04,61,103,38,05,40,275,26*7B
$GPGSV,3,2,11,13,34,045,35,07,20,100,00,17,13,170,25,08,11,134,29*7E
$GPGSV,3,3,11,23,08,039,00,29,05,325,00,12,01,265,00,,,,*43
$GPRMC,013951,A,3637.5413,N,13808.7790,E,028.8,247.1,180310,,,A*7F
$GPVTG,247.1,T,,M,028.8,N,053.4,K,A*0D
$GPGGA,014006,3637.4988,N,13808.6432,E,1,06,01.8,00397.8,M,037.4,M,00,0000*46
$GPGSA,A,3,04,02,07,10,05,13,,,,,,,03.0,01.8,02.4*09
$GPGSV,3,1,11,02,63,323,39,10,61,298,36,04,61,103,41,05,40,275,31*73
$GPGSV,3,2,11,13,34,045,24,07,20,100,36,17,13,170,00,08,11,134,14*72
$GPGSV,3,3,11,23,08,039,00,29,05,325,00,12,01,265,00,,,,*43
$GPRMC,014006,A,3637.4988,N,13808.6432,E,026.5,257.3,180310,,,A*77
$GPVTG,257.3,T,,M,026.5,N,049.1,K,A*03
$GPGGA,014021,3637.4895,N,13808.5073,E,1,07,01.3,00393.0,M,037.4,M,00,0000*4A
$GPGSA,A,3,10,02,05,04,17,07,13,,,,,,02.5,01.3,02.2*06
$GPGSV,3,1,11,02,63,323,41,10,61,298,42,04,61,103,34,05,40,275,39*75
$GPGSV,3,2,11,13,34,045,28,07,20,100,31,17,13,170,31,08,11,134,22*7E
$GPGSV,3,3,11,23,08,039,00,29,05,325,00,12,01,265,00,,,,*43
$GPRMC,014021,A,3637.4895,N,13808.5073,E,026.0,271.8,180310,,,A*77
$GPVTG,271.8,T,,M,026.0,N,048.3,K,A*0A
$GPGGA,014036,3637.4763,N,13808.3886,E,1,05,02.4,00393.9,M,037.4,M,00,0000*41
$GPGSA,A,3,02,13,10,07,04,,,,,,,,04.4,02.4,03.7*02
$GPGSV,3,1,11,02,63,323,39,10,61,298,37,04,61,103,29,05,40,275,00*7E
$GPGSV,3,2,11,13,34,045,38,07,20,100,31,17,13,170,00,08,11,134,00*7D
$GPGSV,3,3,11,23,08,039,00,29,05,325,00,12,01,265,00,,,,*43
$GPRMC,014036,A,3637.4763,N,13808.3886,E,018.1,253.1,180310,,,A*76
$GPVTG,253.1,T,,M,018.1,N,033.6,K,A*06
$GPGGA,014051,3637.4639,N,13808.3400,E,1,07,01.3,00410.4,M,037.4,M,00,0000*4B
$GPGSA,A,3,02,13,10,07,04,17,05,,,,,,02.5,01.3,02.2*06
$GPGSV,3,1,11,02,63,323,41,10,61,298,35,04,61,103,34,05,40,275,30*7C
$GPGSV,3,2,11,13,34,045,39,07,20,100,36,17,13,170,30,08,11,134,31*7A
$GPGSV,3,3,11,23,08,039,00,29,05,325,00,12,01,265,00,,,,*43
$GPRMC,014051,A,3637.4639,N,13808.3400,E,001.2,224.1,180310,,,A*70
$GPVTG,224.1,T,,M,001.2,N,002.3,K,A*0A
$GPGGA,014106,3637.4630,N,13808.2721,E,1,07,01.3,00378.2,M,037.4,M,00,0000*4F
$GPGSA,A,3,10,02,07,13,05,04,17,,,,,,02.5,01.3,02.2*06
$GPGSV,3,1,11,02,63,323,39,10,61,298,41,04,61,103,30,05,40,275,33*77
$GPGSV,3,2,11,13,34,045,36,07,20,100,34,17,13,170,28,08,11,134,00*7C
$GPGSV,3,3,11,23,08,039,00,29,05,325,00,12,01,265,00,,,,*43
$GPRMC,014106,A,3637.4630,N,13808.2721,E,019.3,256.2,180310,,,A*75
$GPVTG,256.2,T,,M,019.3,N,035.8,K,A*0B
$GPGGA,014121,3637.4026,N,13808.1515,E,1,07,01.3,00370.8,M,037.4,M,00,0000*4F
$GPGSA,A,3,02,05,07,13,10,04,17,,,,,,02.5,01.3,02.2*06
$GPGSV,3,1,11,02,63,323,40,10,61,298,33,04,61,103,33,05,40,275,36*7A
$GPGSV,3,2,11,13,34,045,38,07,20,100,38,17,13,170,30,08,11,134,36*72
$GPGSV,3,3,11,23,08,039,00,29,05,325,00,12,01,265,00,,,,*43
$GPRMC,014121,A,3637.4026,N,13808.1515,E,028.6,225.7,180310,,,A*71
$GPVTG,225.7,T,,M,028.6,N,052.9,K,A*0D
$GPGGA,014136,3637.3141,N,13808.0675,E,1,07,01.3,00367.8,M,037.4,M,00,0000*4C
$GPGSA,A,3,02,04,05,13,07,10,17,,,,,,02.5,01.3,02.2*06
$GPGSV,3,1,11,02,63,323,36,10,61,298,29,04,61,103,35,05,40,275,35*75
$GPGSV,3,2,11,13,34,045,33,07,20,100,35,17,13,170,28,08,11,134,31*7A
$GPGSV,3,3,11,23,08,039,00,29,05,325,00,12,01,265,00,,,,*43
$GPRMC,014136,A,3637.3141,N,13808.0675,E,026.9,223.4,180310,,,A*70
$GPVTG,223.4,T,,M,026.9,N,049.8,K,N*0D
$GPGGA,014151,3637.3082,N,13807.9254,E,1,07,01.3,00380.1,M,037.4,M,00,0000*42
$GPGSA,A,3,10,05,04,17,02,07,13,,,,,,02.5,01.3,02.1*05
$GPGSV,3,1,11,02,63,323,36,10,61,298,42,04,61,103,37,05,40,275,37*78
$GPGSV,3,2,11,13,34,045,21,07,20,100,35,17,13,170,37,08,11,134,29*7E
$GPGSV,3,3,11,23,08,039,00,29,05,325,00,12,01,265,00,,,,*43
$GPRMC,014151,A,3637.3082,N,13807.9254,E,027.7,276.5,180310,,,A*70
$GPVTG,276.5,T,,M,027.7,N,051.3,K,A*0E
$GPGGA,014206,3637.3159,N,13807.7813,E,1,07,01.3,00381.1,M,037.4,M,00,0000*42
$GPGSA,A,3,02,05,10,04,17,07,13,,,,,,02.5,01.3,02.1*05
$GPGSV,3,1,11,02,63,323,40,10,61,298,37,04,61,103,36,05,40,275,37*7A
$GPGSV,3,2,11,13,34,045,24,07,20,100,31,17,13,170,32,08,11,134,32*70
$GPGSV,3,3,11,23,08,039,00,29,05,325,00,12,01,265,00,,,,*43
$GPRMC,014206,A,3637.3159,N,13807.7813,E,029.0,269.5,180310,,,A*76
$GPVTG,269.5,T,,M,029.0,N,053.8,K,A*00
$GPGGA,014211,3637.3125,N,13807.7295,E,1,06,01.8,00378.5,M,037.4,M,00,0000*43
$GPGSA,A,3,02,10,04,05,07,13,,,,,,,03.0,01.8,02.4*09
$GPGSV,3,1,11,02,63,323,36,10,61,298,34,04,61,103,32,05,40,275,34*7F
$GPGSV,3,2,11,13,34,045,19,07,20,100,28,17,13,170,00,08,11,134,30*75
$GPGSV,3,3,11,23,08,039,00,29,05,325,00,12,01,265,00,,,,*43
$GPRMC,014211,A,3637.3125,N,13807.7295,E,029.4,260.9,180310,,,A*7E
$GPVTG,260.9,T,,M,029.4,N,054.5,K,A*0B
$GPGGA,014242,3637.1809,N,13807.5317,E,1,05,02.3,00385.4,M,037.4,M,00,0000*41
$GPGSA,A,3,10,05,04,13,02,,,,,,,,04.2,02.3,03.5*03
$GPGSV,3,1,11,02,65,324,32,10,62,301,29,04,60,105,32,05,41,277,41*72
$GPGSV,3,2,11,13,32,044,34,07,21,098,14,17,12,170,00,08,12,133,00*75
$GPGSV,3,3,11,23,06,039,00,29,06,324,00,12,00,264,00,,,,*4F
$GPRMC,014242,A,3637.1809,N,13807.5317,E,025.5,210.8,180310,,,A*7F
$GPVTG,210.8,T,,M,025.5,N,047.2,K,A*05
$GPGGA,014257,3637.1444,N,13807.4298,E,1,05,02.3,00385.6,M,037.4,M,00,0000*45
$GPGSA,A,3,10,05,04,13,02,,,,,,,,04.2,02.3,03.5*03
$GPGSV,3,1,11,02,65,324,41,10,62,301,46,04,60,105,31,05,41,277,33*79
$GPGSV,3,2,11,13,32,044,25,07,21,098,00,17,12,170,00,08,12,133,00*70
$GPGSV,3,3,11,23,06,039,00,29,06,324,00,12,00,264,00,,,,*4F
$GPRMC,014257,A,3637.1444,N,13807.4298,E,015.8,274.5,180310,,,A*78
$GPVTG,274.5,T,,M,015.8,N,029.2,K,A*0C
$GPGGA,014312,3637.1408,N,13807.3421,E,1,06,01.8,00387.7,M,037.4,M,00,0000*46
$GPGSA,A,3,10,05,07,04,13,02,,,,,,,03.0,01.8,02.4*09
$GPGSV,3,1,11,02,65,324,39,10,62,301,42,04,60,105,38,05,41,277,30*78
$GPGSV,3,2,11,13,32,044,28,07,21,098,27,17,12,170,00,08,12,133,00*78
$GPGSV,3,3,11,23,06,039,00,29,06,324,00,12,00,264,00,,,,*4F
$GPRMC,014312,A,3637.1408,N,13807.3421,E,021.9,297.6,180310,,,A*7B
$GPVTG,297.6,T,,M,021.9,N,040.7,K,A*0E
$GPGGA,014327,3637.1962,N,13807.2176,E,1,06,01.8,00398.1,M,037.4,M,00,0000*4F
$GPGSA,A,3,05,02,04,10,13,07,,,,,,,03.0,01.8,02.4*09
$GPGSV,3,1,11,02,65,324,38,10,62,301,38,04,60,105,40,05,41,277,31*7A
$GPGSV,3,2,11,13,32,044,35,07,21,098,31,17,12,170,00,08,12,133,00*73
$GPGSV,3,3,11,23,06,039,00,29,06,324,00,12,00,264,00,,,,*4F
$GPRMC,014327,A,3637.1962,N,13807.2176,E,028.9,290.3,180310,,,A*71
$GPVTG,290.3,T,,M,028.9,N,053.5,K,A*05
$GPGGA,014333,3637.2094,N,13807.1606,E,1,03,03.8,00399.3,M,037.4,M,00,0000*4E
$GPGSA,A,2,04,13,07,,,,,,,,,,03.9,03.8,00.9*0A
$GPGSV,3,1,11,02,65,324,00,10,62,301,11,04,60,105,28,05,41,277,11*76
$GPGSV,3,2,11,13,32,044,21,07,21,098,31,17,12,170,00,08,12,133,00*76
$GPGSV,3,3,11,23,06,039,00,29,06,324,00,12,00,264,00,,,,*4F
$GPRMC,014333,A,3637.2094,N,13807.1606,E,027.8,282.3,180310,,,A*79
$GPVTG,282.3,T,,M,027.8,N,051.5,K,N*05
$GPGGA,014427,3637.2213,N,13806.5350,E,1,06,01.8,00396.4,M,037.4,M,00,0000*4D
$GPGSA,A,3,05,02,10,04,13,07,,,,,,,03.0,01.8,02.4*09
$GPGSV,3,1,11,02,65,324,28,10,62,301,39,04,60,105,39,05,41,277,34*71
$GPGSV,3,2,11,13,32,044,32,07,21,098,27,17,12,170,00,08,12,133,00*73
$GPGSV,3,3,11,23,06,039,00,29,06,324,00,12,00,264,00,,,,*4F
$GPRMC,014427,A,3637.2213,N,13806.5350,E,034.8,285.0,180310,,,A*73
$GPVTG,285.0,T,,M,034.8,N,064.5,K,A*0A
$GPGGA,014437,3637.2501,N,13806.4215,E,1,06,01.8,00397.0,M,037.4,M,00,0000*4C
$GPGSA,A,3,05,02,10,04,13,07,,,,,,,03.0,01.8,02.4*09
$GPGSV,3,1,11,02,65,324,34,10,62,301,37,04,60,105,31,05,41,277,40*79
$GPGSV,3,2,11,13,32,044,37,07,21,098,22,17,12,170,00,08,12,133,00*73
$GPGSV,3,3,11,23,06,039,00,29,06,324,00,12,00,264,00,,,,*4F
$GPRMC,014437,A,3637.2501,N,13806.4215,E,033.2,290.8,180310,,,A*76
$GPVTG,290.8,T,,M,033.2,N,061.5,K,A*0E
$GPGGA,014458,3637.2347,N,13806.2761,E,1,05,02.2,00357.2,M,037.4,M,00,0000*45
$GPGSA,A,3,04,10,05,13,02,,,,,,,,04.2,02.2,03.5*02
$GPGSV,3,1,11,02,66,325,22,10,62,303,41,04,59,107,42,05,41,278,35*7E
$GPGSV,3,2,11,13,31,044,19,07,21,097,00,17,11,170,00,08,13,132,00*70
$GPGSV,3,3,11,29,06,324,00,23,05,038,00,12,00,263,00,,,,*4A
$GPRMC,014458,A,3637.2347,N,13806.2761,E,018.9,265.5,180310,,,A*7E
$GPVTG,265.5,T,,M,018.9,N,035.1,K,N*01
$GPGGA,014512,3637.1142,N,13806.2568,E,1,06,01.8,00373.3,M,037.4,M,00,0000*48
$GPGSA,A,3,04,10,05,13,02,07,,,,,,,03.0,01.8,02.4*09
$GPGSV,3,1,11,02,66,325,36,10,62,303,30,04,59,107,34,05,41,278,34*7D
$GPGSV,3,2,11,13,31,044,16,07,21,097,16,17,11,170,00,08,13,132,00*78
$GPGSV,3,3,11,29,06,324,00,23,05,038,00,12,00,263,00,,,,*4A
$GPRMC,014512,A,3637.1142,N,13806.2568,E,031.5,181.6,180310,,,A*73
$GPVTG,181.6,T,,M,031.5,N,058.3,K,A*0A
$GPGGA,014522,3637.0385,N,13806.2131,E,1,05,02.2,00382.6,M,037.4,M,00,0000*4A
$GPGSA,A,3,04,10,05,13,02,,,,,,,,04.2,02.2,03.5*02
$GPGSV,3,1,11,02,66,325,30,10,62,304,35,04,59,107,28,05,41,278,35*75
$GPGSV,3,2,11,13,31,044,35,07,21,097,00,08,13,132,00,17,11,170,00*7E
$GPGSV,3,3,11,29,07,323,00,23,05,038,00,12,00,263,00,,,,*4C
$GPRMC,014522,A,3637.0385,N,13806.2131,E,031.8,214.0,180310,,,A*74
$GPVTG,214.0,T,,M,031.8,N,059.0,K,A*0C
$GPGGA,014537,3636.9822,N,13806.0702,E,1,05,02.2,00388.2,M,037.4,M,00,0000*4A
$GPGSA,A,3,10,02,13,04,05,,,,,,,,04.2,02.2,03.5*02
$GPGSV,3,1,11,02,66,325,37,10,62,304,38,04,59,107,27,05,41,278,27*73
$GPGSV,3,2,11,13,31,044,35,07,21,097,00,08,13,132,00,17,11,170,00*7E
$GPGSV,3,3,11,29,07,323,00,23,05,038,00,12,00,263,00,,,,*4C
$GPRMC,014537,A,3636.9822,N,13806.0702,E,031.1,257.4,180310,,,A*70
$GPVTG,257.4,T,,M,031.1,N,057.7,K,A*0F
$GPGGA,014552,3636.9652,N,13805.9106,E,1,04,02.7,00390.3,M,037.4,M,00,0000*44
$GPGSA,A,3,10,05,04,13,,,,,,,,,05.5,02.7,04.7*06
$GPGSV,3,1,11,02,66,325,00,10,62,304,40,04,59,107,35,05,41,278,36*7B
$GPGSV,3,2,11,13,31,044,34,07,21,097,00,08,13,132,00,17,11,170,00*7F
$GPGSV,3,3,11,29,07,323,00,23,05,038,00,12,00,263,00,,,,*4C
$GPRMC,014552,A,3636.9652,N,13805.9106,E,029.5,277.6,180310,,,A*7F
$GPVTG,277.6,T,,M,029.5,N,054.7,K,A*01
$GPGGA,014607,3637.0215,N,13805.7586,E,1,05,02.2,00419.4,M,037.4,M,00,0000*4F
$GPGSA,A,3,10,04,05,13,02,,,,,,,,04.2,02.2,03.5*02
$GPGSV,3,1,11,02,66,325,26,10,62,304,39,04,59,107,37,05,41,278,36*73
$GPGSV,3,2,11,13,31,044,34,07,21,097,00,08,13,132,35,17,11,170,00*79
$GPGSV,3,3,11,29,07,323,00,23,05,038,00,12,00,263,00,,,,*4C
$GPRMC,014607,A,3637.0215,N,13805.7586,E,030.9,287.6,180310,,,A*7A
$GPVTG,287.6,T,,M,030.9,N,057.3,K,A*0D
$GPGGA,014628,3637.0671,N,13805.5565,E,1,06,01.8,00417.4,M,037.4,M,00,0000*4F
$GPGSA,A,3,10,02,04,05,13,07,,,,,,,03.1,01.8,02.5*09
$GPGSV,3,1,10,02,66,325,40,10,63,305,41,04,59,108,39,05,42,279,40*7F
$GPGSV,3,2,10,13,31,044,32,07,22,097,31,17,10,170,00,08,13,132,00*78
$GPGSV,3,3,10,29,07,323,00,23,05,038,00,,,,,,,,*79
$GPRMC,014628,A,3637.0671,N,13805.5565,E,028.7,280.3,180310,,,A*7B
$GPVTG,280.3,T,,M,028.7,N,053.2,K,A*0D
$GPGGA,014642,3637.0456,N,13805.4073,E,1,07,01.3,00383.0,M,037.4,M,00,0000*43
$GPGSA,A,3,10,02,04,05,13,07,17,,,,,,02.4,01.3,02.0*05
$GPGSV,3,1,10,02,66,325,35,10,63,305,40,04,58,108,40,05,42,279,31*75
$GPGSV,3,2,10,13,31,044,31,07,22,096,33,08,13,132,26,17,10,170,28*76
$GPGSV,3,3,10,29,07,323,00,23,05,038,00,,,,,,,,*79
$GPRMC,014642,A,3637.0456,N,13805.4073,E,030.9,256.5,180310,,,A*79
$GPVTG,256.5,T,,M,030.9,N,057.3,K,A*02
$GPGGA,014651,3637.0435,N,13805.3291,E,1,07,01.3,00383.6,M,037.3,M,00,0000*4C
$GPGSA,A,3,05,02,10,13,07,04,17,,,,,,02.4,01.3,02.0*05
$GPGSV,3,1,10,02,66,325,36,10,63,305,37,04,58,108,26,05,42,279,37*70
$GPGSV,3,2,10,13,31,043,32,07,22,096,32,08,13,131,31,17,10,170,29*77
$GPGSV,3,3,10,29,07,323,00,23,05,038,00,,,,,,,,*79
$GPRMC,014651,A,3637.0435,N,13805.3291,E,024.8,246.1,180310,,,A*76
$GPVTG,246.1,T,,M,024.8,N,045.9,K,A*0A
$GPGGA,014706,3636.9615,N,13805.2156,E,1,07,01.3,00382.6,M,037.3,M,00,0000*4F
$GPGSA,A,3,05,10,02,13,04,07,17,,,,,,02.4,01.3,02.0*05
$GPGSV,3,1,10,02,66,325,37,10,63,305,40,04,58,108,34,05,42,279,39*7C
$GPGSV,3,2,10,13,31,043,37,07,22,096,31,08,13,131,00,17,10,170,18*71
$GPGSV,3,3,10,29,07,323,00,23,05,038,00,,,,,,,,*79
$GPRMC,014706,A,3636.9615,N,13805.2156,E,024.7,226.6,180310,,,A*7A
$GPVTG,226.6,T,,M,024.7,N,045.9,K,A*04
$GPGGA,014721,3636.9098,N,13805.1301,E,1,06,01.9,00376.2,M,037.3,M,00,0000*4E
$GPGSA,A,3,02,10,05,07,17,04,,,,,,,03.3,01.9,02.7*0C
$GPGSV,3,1,10,02,66,325,39,10,63,305,39,04,58,108,30,05,42,279,39*78
$GPGSV,3,2,10,13,31,043,00,07,22,096,34,08,13,131,25,17,10,170,34*79
$GPGSV,3,3,10,29,07,323,00,23,05,038,00,,,,,,,,*79
$GPRMC,014721,A,3636.9098,N,13805.1301,E,014.8,228.3,180310,,,A*78
$GPVTG,228.3,T,,M,014.8,N,027.4,K,A*0A
$GPGGA,014736,3636.9087,N,13805.1221,E,1,06,01.9,00373.2,M,037.3,M,00,0000*40
$GPGSA,A,3,10,02,05,07,17,04,,,,,,,03.3,01.9,02.7*0C
$GPGSV,3,1,10,02,66,325,38,10,63,305,39,04,58,108,31,05,42,279,37*76
$GPGSV,3,2,10,13,31,043,00,07,22,096,36,08,13,131,34,17,10,170,34*7B
$GPGSV,3,3,10,29,07,323,00,23,05,038,00,,,,,,,,*79
$GPRMC,014736,A,3636.9087,N,13805.1221,E,000.8,351.8,180310,,,A*72
$GPVTG,351.8,T,,M,000.8,N,001.6,K,A*0D
$GPGGA,014751,3636.8930,N,13805.1205,E,1,07,01.3,00379.6,M,037.3,M,00,0000*46
$GPGSA,A,3,10,05,02,17,13,04,07,,,,,,02.4,01.3,02.0*05
$GPGSV,3,1,10,02,66,325,38,10,63,305,40,04,58,108,17,05,42,279,39*72
$GPGSV,3,2,10,13,31,043,32,07,22,096,25,08,13,131,28,17,10,170,35*74
$GPGSV,3,3,10,29,07,323,00,23,05,038,00,,,,,,,,*79
$GPRMC,014751,A,3636.8930,N,13805.1205,E,002.9,221.8,180310,,,A*74
$GPVTG,221.8,T,,M,002.9,N,005.4,K,A*0E
$GPGGA,014801,3636.8727,N,13805.0638,E,1,07,01.3,00402.0,M,037.3,M,00,0000*42
$GPGSA,A,3,10,02,07,05,13,04,17,,,,,,02.4,01.3,02.0*05
$GPGSV,3,1,10,02,66,325,38,10,63,305,41,04,58,108,33,05,42,279,32*7E
$GPGSV,3,2,10,13,31,043,33,07,22,096,35,08,13,131,00,17,10,170,18*71
$GPGSV,3,3,10,29,07,323,00,23,05,038,00,,,,,,,,*79
$GPRMC,014801,A,3636.8727,N,13805.0638,E,021.4,247.3,180310,,,A*7A
$GPVTG,247.3,T,,M,021.4,N,039.7,K,A*05
$GPGGA,014927,3636.4729,N,13804.3166,E,1,06,01.8,00390.5,M,037.3,M,00,0000*48
$GPGSA,A,3,05,10,02,04,13,07,,,,,,,03.1,01.8,02.5*09
$GPGSV,3,1,11,02,68,326,35,10,63,308,35,04,57,109,34,05,43,280,44*7E
$GPGSV,3,2,11,13,30,043,31,07,22,095,28,17,09,170,00,08,14,131,32*7B
$GPGSV,3,3,11,29,08,323,00,23,04,038,00,15,00,214,00,,,,*45
$GPRMC,014927,A,3636.4729,N,13804.3166,E,032.9,243.1,180310,,,A*7A
$GPVTG,243.1,T,,M,032.9,N,060.9,K,A*0E
$GPGGA,014935,3636.4374,N,13804.2339,E,1,06,01.8,00390.3,M,037.3,M,00,0000*48
$GPGSA,A,3,10,02,04,07,05,13,,,,,,,03.1,01.8,02.5*09
$GPGSV,3,1,11,02,68,326,38,10,63,308,38,04,57,109,34,05,43,280,32*7F
$GPGSV,3,2,11,13,30,043,30,07,22,095,28,08,14,131,30,17,09,170,00*78
$GPGSV,3,3,11,29,08,323,00,23,04,038,00,15,00,214,00,,,,*45
$GPRMC,014935,A,3636.4374,N,13804.2339,E,034.1,245.7,180310,,,A*72
$GPVTG,245.7,T,,M,034.1,N,063.1,K,A*0B
$GPGGA,014950,3636.3837,N,13804.0833,E,1,06,01.8,00382.5,M,037.3,M,00,0000*46
$GPGSA,A,3,10,13,05,07,04,02,,,,,,,03.1,01.8,02.5*09
$GPGSV,3,1,11,02,68,326,33,10,63,308,38,04,57,110,30,05,43,280,36*7C
$GPGSV,3,2,11,13,30,043,38,07,22,095,35,08,14,131,00,17,09,170,00*7F
$GPGSV,3,3,11,29,08,323,00,23,04,038,00,15,01,214,00,,,,*44
$GPRMC,014950,A,3636.3837,N,13804.0833,E,029.8,251.7,180310,,,A*79
$GPVTG,251.7,T,,M,029.8,N,055.3,K,A*0C
$GPGGA,015005,3636.3450,N,13803.9424,E,1,05,02.3,00381.6,M,037.3,M,00,0000*4C
$GPGSA,A,3,13,10,07,02,05,,,,,,,,04.2,02.3,03.5*00
$GPGSV,3,1,11,02,68,326,34,10,63,308,37,04,57,110,00,05,43,280,33*72
$GPGSV,3,2,11,13,30,043,40,07,22,095,35,08,14,131,00,17,09,170,00*70
$GPGSV,3,3,11,29,08,323,00,23,04,038,00,15,01,214,00,,,,*44
$GPRMC,015005,A,3636.3450,N,13803.9424,E,029.8,253.3,180310,,,A*7E
$GPVTG,253.3,T,,M,029.8,N,055.1,K,A*08
$GPGGA,015020,3636.3033,N,13803.7791,E,1,06,01.8,00370.5,M,037.3,M,00,0000*4F
$GPGSA,A,3,13,02,10,07,05,04,,,,,,,03.1,01.8,02.5*09
$GPGSV,3,1,11,02,68,326,37,10,63,308,37,04,57,110,33,05,43,280,35*77
$GPGSV,3,2,11,13,30,043,38,07,22,095,36,08,14,131,00,17,09,170,00*7C
$GPGSV,3,3,11,29,08,323,00,23,04,038,00,15,01,214,00,,,,*44
$GPRMC,015020,A,3636.3033,N,13803.7791,E,034.4,248.8,180310,,,A*7A
$GPVTG,248.8,T,,M,034.4,N,063.8,K,A*05
$GPGGA,015042,3636.2086,N,13803.5636,E,1,05,02.2,00402.0,M,037.3,M,00,0000*47
$GPGSA,A,3,05,02,13,10,04,,,,,,,,04.1,02.2,03.5*01
$GPGSV,3,1,11,02,68,326,32,10,63,309,40,04,57,110,33,05,43,281,42*72
$GPGSV,3,2,11,13,29,043,37,07,22,095,00,17,09,170,00,08,15,130,00*7E
$GPGSV,3,3,11,29,08,322,00,23,03,038,00,15,01,214,00,,,,*42
$GPRMC,015042,A,3636.2086,N,13803.5636,E,031.3,247.3,180310,,,A*79
$GPVTG,247.3,T,,M,031.3,N,058.0,K,A*03
$GPGGA,015053,3636.1593,N,13803.4665,E,1,05,02.2,00403.1,M,037.3,M,00,0000*42
$GPGSA,A,3,05,02,13,10,04,,,,,,,,04.1,02.2,03.5*01
$GPGSV,3,1,11,02,68,326,30,10,63,309,33,04,57,110,31,05,43,281,35*76
$GPGSV,3,2,11,13,29,043,32,07,22,095,00,08,15,130,00,17,09,170,00*7B
$GPGSV,3,3,11,29,08,322,00,23,03,038,00,15,01,214,00,,,,*42
$GPRMC,015053,A,3636.1593,N,13803.4665,E,029.1,229.5,180310,,,A*79
$GPVTG,229.5,T,,M,029.1,N,053.9,K,A*04
$GPGGA,015108,3636.0538,N,13803.3997,E,1,05,02.2,00402.6,M,037.3,M,00,0000*4E
$GPGSA,A,3,10,04,02,05,13,,,,,,,,04.1,02.2,03.5*01
$GPGSV,3,1,11,02,68,326,38,10,63,309,40,04,57,110,39,05,43,281,34*73
$GPGSV,3,2,11,13,29,043,29,07,22,095,00,08,15,130,00,17,09,170,00*71
$GPGSV,3,3,11,29,08,322,00,23,03,038,00,15,01,214,00,,,,*42
$GPRMC,015108,A,3636.0538,N,13803.3997,E,027.9,203.8,180310,,,A*70
$GPVTG,203.8,T,,M,027.9,N,051.8,K,A*04
$GPGGA,015123,3635.9664,N,13803.2832,E,1,05,02.2,00395.5,M,037.3,M,00,0000*42
$GPGSA,A,3,05,04,02,10,13,,,,,,,,04.1,02.2,03.5*01
$GPGSV,3,1,11,02,68,326,35,10,63,309,36,04,57,110,35,05,43,281,39*7E
$GPGSV,3,2,11,13,29,043,30,07,22,095,00,08,15,130,00,17,09,170,00*79
$GPGSV,3,3,11,29,08,322,00,23,03,038,00,15,01,214,00,,,,*42
$GPRMC,015123,A,3635.9664,N,13803.2832,E,029.2,236.7,180310,,,A*7A
$GPVTG,236.7,T,,M,029.2,N,054.2,K,A*07
$GPGGA,015142,3635.9362,N,13803.1131,E,1,06,01.8,00418.5,M,037.3,M,00,0000*47
$GPGSA,A,3,10,13,04,02,05,07,,,,,,,03.2,01.8,02.6*09
$GPGSV,3,1,11,02,69,326,39,10,64,310,42,04,57,111,41,05,43,281,35*71
$GPGSV,3,2,11,13,29,043,33,07,23,094,34,17,08,170,00,08,15,130,00*7C
$GPGSV,3,3,11,29,09,322,00,23,03,038,00,15,01,214,00,,,,*43
$GPRMC,015142,A,3635.9362,N,13803.1131,E,025.1,290.6,180310,,,A*75
$GPVTG,290.6,T,,M,025.1,N,046.5,K,A*01
$GPGGA,015151,3635.9510,N,13803.0411,E,1,06,01.8,00428.6,M,037.3,M,00,0000*40
$GPGSA,A,3,10,04,13,07,02,05,,,,,,,03.2,01.8,02.6*09
$GPGSV,3,1,11,02,69,326,37,10,64,310,41,04,57,111,38,05,43,281,30*77
$GPGSV,3,2,11,13,29,043,34,07,23,094,36,08,15,130,00,29,09,322,00*70
$GPGSV,3,3,11,17,08,170,00,23,03,038,00,15,01,214,00,,,,*4A
$GPRMC,015151,A,3635.9510,N,13803.0411,E,021.8,280.0,180310,,,A*78
$GPVTG,280.0,T,,M,021.8,N,040.4,K,A*0C
$GPGGA,015206,3635.8960,N,13802.9373,E,1,06,01.8,00432.1,M,037.3,M,00,0000*4C
$GPGSA,A,3,04,07,10,02,13,05,,,,,,,03.2,01.8,02.6*09
$GPGSV,3,1,11,02,69,326,36,10,64,310,38,04,57,111,39,05,43,281,25*7D
$GPGSV,3,2,11,13,29,043,35,07,23,094,37,08,15,130,00,29,09,322,00*70
$GPGSV,3,3,11,17,08,170,00,23,03,038,00,15,01,214,00,,,,*4A
$GPRMC,015206,A,3635.8960,N,13802.9373,E,021.9,227.5,180310,,,A*71
$GPVTG,227.5,T,,M,021.9,N,040.7,K,A*06
$GPGGA,015227,3635.8015,N,13802.8364,E,1,07,01.2,00440.1,M,037.3,M,00,0000*4D
$GPGSA,A,3,05,13,07,04,02,10,17,,,,,,02.3,01.2,01.9*09
$GPGSV,3,1,11,02,69,327,27,10,64,311,23,04,56,111,36,05,44,282,39*70
$GPGSV,3,2,11,13,28,043,40,07,23,094,37,17,08,169,36,08,15,130,29*7C
$GPGSV,3,3,11,29,09,322,22,23,03,038,00,15,02,214,00,,,,*40
$GPRMC,015227,A,3635.8015,N,13802.8364,E,018.5,217.5,180310,,,A*7B
$GPVTG,217.5,T,,M,018.5,N,034.3,K,A*04
$GPGGA,015242,3635.7389,N,13802.7923,E,1,07,01.2,00452.0,M,037.3,M,00,0000*43
$GPGSA,A,3,02,04,07,17,05,10,13,,,,,,02.3,01.2,01.9*09
$GPGSV,3,1,11,02,69,327,38,10,64,311,43,04,56,111,43,05,44,282,33*70
$GPGSV,3,2,11,13,28,042,38,07,23,094,35,17,08,169,27,08,15,130,33*7B
$GPGSV,3,3,11,29,09,322,30,23,02,038,00,15,02,214,00,,,,*42
$GPRMC,015242,A,3635.7389,N,13802.7923,E,018.7,198.1,180310,,,A*75
$GPVTG,198.1,T,,M,018.7,N,034.7,K,A*02
$GPGGA,015257,3635.6441,N,13802.8155,E,1,07,01.2,00447.2,M,037.3,M,00,0000*45
$GPGSA,A,3,02,04,07,17,05,10,13,,,,,,02.3,01.2,01.9*09
$GPGSV,3,1,11,02,69,327,34,10,64,311,33,04,56,111,42,05,44,282,40*7E
$GPGSV,3,2,11,13,28,042,35,07,23,094,32,17,08,169,30,08,15,130,22*77
$GPGSV,3,3,11,29,09,322,34,23,02,038,00,15,02,214,00,,,,*46
$GPRMC,015257,A,3635.6441,N,13802.8155,E,026.6,161.7,180310,,,A*79
$GPVTG,161.7,T,,M,026.6,N,049.3,K,A*00
$GPGGA,015312,3635.5304,N,13802.8630,E,1,06,01.8,00440.2,M,037.3,M,00,0000*48
$GPGSA,A,3,02,04,07,05,10,13,,,,,,,03.2,01.8,02.6*09
$GPGSV,3,1,11,02,69,327,34,10,64,311,36,04,56,111,41,05,44,282,40*78
$GPGSV,3,2,11,13,28,042,36,07,23,094,30,17,08,169,21,08,15,130,24*70
$GPGSV,3,3,11,29,09,322,34,23,02,038,00,15,02,214,00,,,,*46
$GPRMC,015312,A,3635.5304,N,13802.8630,E,028.8,161.6,180310,,,A*79
$GPVTG,161.6,T,,M,028.8,N,053.4,K,A*0D
$GPGGA,015327,3635.4149,N,13802.9313,E,1,04,04.1,00430.0,M,037.3,M,00,0000*4A
$GPGSA,A,3,02,04,05,10,,,,,,,,,04.3,04.1,00.9*0B
$GPGSV,3,1,11,02,69,327,37,10,64,312,34,04,56,112,44,05,44,282,35*7E
$GPGSV,3,2,11,13,28,042,00,07,23,093,00,08,15,129,33,29,09,322,22*7D
$GPGSV,3,3,11,17,07,169,00,23,02,038,00,15,02,214,00,,,,*4F
$GPRMC,015327,A,3635.4149,N,13802.9313,E,033.5,145.0,180310,,,A*77
$GPVTG,145.0,T,,M,033.5,N,062.1,K,A*0D
$GPGGA,015336,3635.3464,N,13802.9971,E,1,04,04.1,00427.8,M,037.3,M,00,0000*47
$GPGSA,A,3,02,04,05,10,,,,,,,,,04.3,04.1,00.9*0B
$GPGSV,3,1,11,02,70,327,32,10,64,312,38,04,56,112,46,05,44,282,34*7C
$GPGSV,3,2,11,13,28,042,00,07,23,093,00,08,16,129,29,29,09,322,31*77
$GPGSV,3,3,11,17,07,169,00,23,02,038,00,15,02,214,00,,,,*4F
$GPRMC,015336,A,3635.3464,N,13802.9971,E,034.5,138.8,180310,,,A*71
$GPVTG,138.8,T,,M,034.5,N,064.0,K,A*0F
$GPGGA,015355,3635.2092,N,13803.0955,E,1,06,01.8,00421.9,M,037.3,M,00,0000*49
$GPGSA,A,3,04,07,10,05,02,13,,,,,,,03.2,01.8,02.6*09
$GPGSV,3,1,11,02,70,327,33,10,64,313,35,04,56,112,44,05,44,282,37*70
$GPGSV,3,2,11,13,28,042,33,07,23,093,36,17,07,169,00,08,16,129,24*73
$GPGSV,3,3,11,29,09,322,36,15,02,214,00,23,02,038,00,,,,*44
$GPRMC,015355,A,3635.2092,N,13803.0955,E,028.8,161.3,180310,,,A*71
$GPVTG,161.3,T,,M,028.8,N,053.3,K,A*0F
$GPGGA,015406,3635.1336,N,13803.1287,E,1,07,01.2,00425.3,M,037.3,M,00,0000*46
$GPGSA,A,3,04,02,13,05,17,07,10,,,,,,02.3,01.2,01.9*09
$GPGSV,3,1,11,02,70,327,38,10,64,313,21,04,56,112,42,05,44,282,31*7E
$GPGSV,3,2,11,13,28,042,27,07,23,093,28,08,16,129,24,29,09,322,00*77
$GPGSV,3,3,11,17,07,169,31,15,02,214,00,23,02,038,00,,,,*4D
$GPRMC,015406,A,3635.1336,N,13803.1287,E,025.1,163.1,180310,,,A*7F
$GPVTG,163.1,T,,M,025.1,N,046.5,K,A*09
$GPGGA,015421,3635.0304,N,13803.1302,E,1,06,01.8,00438.1,M,037.3,M,00,0000*4A
$GPGSA,A,3,04,02,10,13,05,07,,,,,,,03.2,01.8,02.7*08
$GPGSV,3,1,11,02,70,327,36,10,64,313,31,04,56,112,42,05,44,282,26*77
$GPGSV,3,2,11,13,28,042,31,07,23,093,23,08,16,129,24,29,09,322,00*7B
$GPGSV,3,3,11,17,07,169,00,15,02,214,00,23,02,038,00,,,,*4F
$GPRMC,015421,A,3635.0304,N,13803.1302,E,025.0,179.9,180310,,,A*74
$GPVTG,179.9,T,,M,025.0,N,046.3,K,A*0D
$GPGGA,015442,3634.8816,N,13803.0142,E,1,06,01.8,00415.3,M,037.3,M,00,0000*44
$GPGSA,A,3,04,02,10,07,05,13,,,,,,,03.3,01.8,02.7*09
$GPGSV,3,1,11,02,70,327,31,10,64,313,34,04,56,112,40,05,44,283,32*73
$GPGSV,3,2,11,13,28,042,27,07,23,093,34,17,07,169,00,08,16,129,29*79
$GPGSV,3,3,11,29,09,322,00,15,03,214,00,23,02,038,00,,,,*40
$GPRMC,015442,A,3634.8816,N,13803.0142,E,031.3,193.8,180310,,,A*74
$GPVTG,193.8,T,,M,031.3,N,058.0,K,A*02
$GPGGA,015457,3634.7505,N,13803.0369,E,1,06,01.8,00415.7,M,037.3,M,00,0000*4F
$GPGSA,A,3,04,13,02,05,07,10,,,,,,,03.3,01.8,02.7*09
$GPGSV,3,1,11,02,70,327,27,10,64,314,26,04,55,113,44,05,44,283,28*7D
$GPGSV,3,2,11,13,27,042,42,07,23,093,28,17,07,169,00,08,16,129,35*75
$GPGSV,3,3,11,29,10,322,00,15,03,214,00,23,02,038,00,,,,*48
$GPRMC,015457,A,3634.7505,N,13803.0369,E,031.4,148.0,180310,,,A*72
$GPVTG,148.0,T,,M,031.4,N,058.3,K,A*08
$GPGGA,015512,3634.6603,N,13803.1585,E,1,06,01.8,00421.4,M,037.3,M,00,0000*4A
$GPGSA,A,3,04,13,02,05,07,10,,,,,,,03.3,01.8,02.7*09
$GPGSV,3,1,11,02,70,327,30,10,64,314,35,04,55,113,43,05,44,283,25*73
$GPGSV,3,2,11,13,27,042,32,07,23,093,33,17,07,169,00,08,16,129,28*74
$GPGSV,3,3,11,29,10,322,00,15,03,214,00,23,02,038,00,,,,*48
$GPRMC,015512,A,3634.6603,N,13803.1585,E,028.7,161.3,180310,,,A*70
$GPVTG,161.3,T,,M,028.7,N,053.3,K,A*00
$GPGGA,015521,3634.5875,N,13803.1579,E,1,05,01.9,00420.7,M,037.3,M,00,0000*45
$GPGSA,A,3,04,13,07,10,05,,,,,,,,03.7,01.9,03.2*0A
$GPGSV,3,1,11,02,70,327,00,10,64,314,34,04,55,113,38,05,44,283,28*70
$GPGSV,3,2,11,13,27,042,34,07,23,093,35,08,16,129,24,29,10,322,00*7E
$GPGSV,3,3,11,17,07,169,00,15,03,214,00,23,02,038,00,,,,*4E
$GPRMC,015521,A,3634.5875,N,13803.1579,E,030.6,182.7,180310,,,A*7E
$GPVTG,182.7,T,,M,030.6,N,056.7,K,A*00
$GPGGA,015542,3634.4382,N,13803.0562,E,1,06,01.8,00424.9,M,037.3,M,00,0000*41
$GPGSA,A,3,04,05,02,10,13,07,,,,,,,03.3,01.8,02.7*09
$GPGSV,3,1,11,02,71,327,38,10,64,314,39,04,55,113,32,05,44,283,40*73
$GPGSV,3,2,11,13,27,042,31,07,23,092,30,17,06,169,00,08,16,129,33*7E
$GPGSV,3,3,11,29,10,321,00,15,03,214,00,23,01,038,00,,,,*48
$GPRMC,015542,A,3634.4382,N,13803.0562,E,026.3,237.0,180310,,,A*7A
$GPVTG,237.0,T,,M,026.3,N,048.8,K,A*08
$GPGGA,015552,3634.4088,N,13802.9746,E,1,06,01.8,00428.1,M,037.3,M,00,0000*41
$GPGSA,A,3,10,07,02,04,13,05,,,,,,,03.3,01.8,02.7*09
$GPGSV,3,1,11,02,71,327,34,10,64,315,39,04,55,113,33,05,45,283,24*7C
$GPGSV,3,2,11,13,27,042,25,07,23,092,37,08,16,129,00,29,10,321,00*78
$GPGSV,3,3,11,17,06,169,00,15,03,214,00,23,01,038,00,,,,*4C
$GPRMC,015552,A,3634.4088,N,13802.9746,E,026.7,256.3,180310,,,A*7E
$GPVTG,256.3,T,,M,026.7,N,049.6,K,A*07
$GPGGA,015607,3634.4175,N,13802.8300,E,1,06,01.9,00434.2,M,037.3,M,00,0000*49
$GPGSA,A,3,02,10,13,04,07,05,,,,,,,03.3,01.9,02.7*08
$GPGSV,3,1,11,02,71,327,38,10,64,315,39,04,55,113,34,05,45,283,31*73
$GPGSV,3,2,11,13,27,042,38,07,23,092,34,08,16,129,27,29,10,321,00*72
$GPGSV,3,3,11,17,06,169,00,15,03,214,00,23,01,038,00,,,,*4C
$GPRMC,015607,A,3634.4175,N,13802.8300,E,028.8,286.9,180310,,,A*7F
$GPVTG,286.9,T,,M,028.8,N,053.3,K,A*0F
$GPGGA,015622,3634.4191,N,13802.6702,E,1,05,03.6,00438.2,M,037.3,M,00,0000*4E
$GPGSA,A,3,10,02,04,05,07,,,,,,,,04.5,03.6,02.8*09
$GPGSV,3,1,11,02,71,327,35,10,64,315,38,04,55,113,28,05,45,283,31*72
$GPGSV,3,2,11,13,27,042,00,07,23,092,25,08,16,129,00,29,10,321,00*7C
$GPGSV,3,3,11,17,06,169,00,15,03,214,00,23,01,038,00,,,,*4C
$GPRMC,015622,A,3634.4191,N,13802.6702,E,031.4,272.7,180310,,,A*7B
$GPVTG,272.7,T,,M,031.4,N,058.3,K,N*0A
$GPGGA,015642,3634.3144,N,13802.5466,E,1,06,01.9,00432.3,M,037.3,M,00,0000*40
$GPGSA,A,3,05,02,07,13,10,04,,,,,,,03.3,01.9,02.7*08
$GPGSV,3,1,11,02,71,328,30,10,64,316,32,04,55,113,41,05,45,284,40*7F
$GPGSV,3,2,11,13,27,042,31,07,24,092,37,17,06,169,00,08,16,128,25*78
$GPGSV,3,3,11,29,10,321,00,15,03,214,00,23,01,038,00,,,,*48
$GPRMC,015642,A,3634.3144,N,13802.5466,E,034.1,186.1,180310,,,A*7E
$GPVTG,186.1,T,,M,034.1,N,063.3,K,A*03
$GPGGA,015650,3634.2412,N,13802.5511,E,1,06,01.9,00429.0,M,037.3,M,00,0000*4C
$GPGSA,A,3,04,13,07,05,10,02,,,,,,,03.3,01.9,02.7*08
$GPGSV,3,1,11,02,71,328,26,10,64,316,33,04,55,113,39,05,45,284,34*75
$GPGSV,3,2,11,13,27,042,35,07,24,092,36,08,16,128,00,29,10,321,00*7E
$GPGSV,3,3,11,17,06,169,00,15,03,214,00,23,01,038,00,,,,*4C
$GPRMC,015650,A,3634.2412,N,13802.5511,E,030.9,177.6,180310,,,A*7E
$GPVTG,177.6,T,,M,030.9,N,057.3,K,A*01
$GPGGA,015705,3634.1270,N,13802.4877,E,1,06,01.9,00421.1,M,037.3,M,00,0000*49
$GPGSA,A,3,13,02,05,07,04,10,,,,,,,03.3,01.9,02.7*08
$GPGSV,3,1,11,02,71,328,37,10,64,316,27,04,55,113,28,05,45,284,34*70
$GPGSV,3,2,11,13,27,042,36,07,24,092,34,08,16,128,32,29,10,321,00*7E
$GPGSV,3,3,11,17,06,169,00,15,03,214,00,23,01,038,00,,,,*4C
$GPRMC,015705,A,3634.1270,N,13802.4877,E,035.5,224.2,180310,,,A*7A
$GPVTG,224.2,T,,M,035.5,N,065.9,K,A*02
$GPGGA,015724,3634.0992,N,13802.3160,E,1,04,04.3,00430.7,M,037.3,M,00,0000*4F
$GPGSA,A,3,05,10,04,02,,,,,,,,,04.4,04.3,00.9*0E
$GPGSV,3,1,11,02,71,328,40,10,64,316,42,04,55,114,36,05,45,284,40*78
$GPGSV,3,2,11,13,26,042,00,07,24,092,00,17,06,169,00,08,17,128,24*7F
$GPGSV,3,3,11,29,10,321,00,15,04,215,00,23,01,038,00,,,,*4E
$GPRMC,015724,A,3634.0992,N,13802.3160,E,023.2,316.2,180310,,,A*77
$GPVTG,316.2,T,,M,023.2,N,043.0,K,A*0F
$GPGGA,015742,3634.1918,N,13802.1842,E,1,06,01.9,00428.2,M,037.3,M,00,0000*46
$GPGSA,A,3,10,05,02,04,13,07,,,,,,,03.4,01.9,02.8*00
$GPGSV,3,1,11,02,71,328,32,10,64,317,37,04,54,114,33,05,45,284,41*7B
$GPGSV,3,2,11,13,26,042,29,07,24,091,35,17,06,169,00,08,17,128,33*77
$GPGSV,3,3,11,29,10,321,00,15,04,215,00,23,01,038,00,,,,*4E
$GPRMC,015742,A,3634.1918,N,13802.1842,E,029.7,272.0,180310,,,A*71
$GPVTG,272.0,T,,M,029.7,N,055.1,K,A*07
$GPGGA,015746,3634.1943,N,13802.1467,E,1,06,01.9,00430.4,M,037.3,M,00,0000*48
$GPGSA,A,3,10,05,02,04,13,07,,,,,,,03.4,01.9,02.8*00
$GPGSV,3,1,11,02,71,328,38,10,64,317,30,04,54,114,33,05,45,284,41*76
$GPGSV,3,2,11,13,26,042,26,07,24,091,35,17,06,169,00,08,17,128,29*73
$GPGSV,3,3,11,29,10,321,00,15,04,215,00,23,01,038,00,,,,*4E
$GPRMC,015746,A,3634.1943,N,13802.1467,E,024.7,278.6,180310,,,A*71
$GPVTG,278.6,T,,M,024.7,N,045.8,K,A*0E
$GPGGA,015827,3634.2591,N,13801.8766,E,1,05,03.5,00449.7,M,037.3,M,00,0000*48
$GPGSA,A,3,10,02,05,04,07,,,,,,,,04.5,03.5,02.8*0A
$GPGSV,3,1,11,02,72,328,34,10,65,317,33,04,54,114,35,05,45,285,40*7D
