@Sonygps/ver1.0/wgs-84/gps-cs3.0
$GPGGA,061959,3614.2227,N,13759.6135,E,1,04,02.2,00613.6,M,037.4,M,00,0000*4B
$GPGSA,A,3,26,24,15,09,,,,,,,,,02.4,02.2,00.9*02
$GPGSV,3,1,12,09,66,209,39,15,59,035,38,24,45,260,43,26,31,279,40*7F
$GPGSV,3,2,12,27,79,201,31,21,40,273,35,18,38,312,38,05,27,127,26*7F
$GPGSV,3,3,12,28,13,048,00,10,05,127,00,22,05,309,00,12,03,172,00*75
$GPRMC,061959,A,3614.2227,N,13759.6135,E,021.3,276.9,180310,,,A*7E
$GPVTG,276.9,T,,M,021.3,N,039.5,K,A*08
$GPGGA,062009,3614.2298,N,13759.5359,E,1,04,02.2,00614.3,M,037.4,M,00,0000*49
$GPGSA,A,3,26,24,15,09,,,,,,,,,02.4,02.2,00.9*02
$GPGSV,3,1,12,09,66,209,40,15,59,035,38,24,45,260,44,26,31,279,40*76
$GPGSV,3,2,12,27,79,201,30,21,40,273,35,18,38,312,40,05,27,127,21*76
$GPGSV,3,3,12,28,13,048,00,10,05,127,00,22,05,309,00,12,03,172,00*75
$GPRMC,062009,A,3614.2298,N,13759.5359,E,021.8,276.3,180310,,,A*7F
$GPVTG,276.3,T,,M,021.8,N,040.3,K,A*01
$GPGGA,062028,3614.2575,N,13759.4495,E,1,04,02.2,00609.0,M,037.4,M,00,0000*47
$GPGSA,A,3,24,09,26,15,,,,,,,,,02.4,02.2,00.9*02
$GPGSV,3,1,12,09,66,209,37,15,59,035,30,24,45,260,42,26,31,279,33*7C
$GPGSV,3,2,12,27,79,201,33,21,40,273,37,18,38,312,38,05,27,127,41*7E
$GPGSV,3,3,12,28,13,048,24,22,05,309,25,10,05,127,00,12,03,172,00*74
$GPRMC,062028,A,3614.2575,N,13759.4495,E,000.3,254.1,180310,,,A*74
$GPVTG,254.1,T,,M,000.3,N,000.6,K,A*0A
$GPGGA,062043,3614.2540,N,13759.4548,E,1,04,02.2,00604.8,M,037.4,M,00,0000*48
$GPGSA,A,3,24,09,26,15,,,,,,,,,02.4,02.2,00.9*02
$GPGSV,3,1,12,09,66,209,27,15,59,035,26,24,45,260,41,26,32,280,31*7E
$GPGSV,3,2,12,27,79,201,34,21,40,273,38,18,38,312,36,05,27,127,41*78
$GPGSV,3,3,12,28,12,048,00,22,05,309,00,10,05,127,00,12,03,172,00*74
$GPRMC,062043,A,3614.2540,N,13759.4548,E,000.8,102.0,180310,,,A*74
$GPVTG,102.0,T,,M,000.8,N,001.5,K,A*02
$GPGGA,062058,3614.2429,N,13759.4589,E,1,04,02.2,00579.1,M,037.4,M,00,0000*41
$GPGSA,A,3,24,09,26,15,,,,,,,,,02.4,02.2,00.9*02
$GPGSV,3,1,12,09,66,209,38,15,59,035,36,24,45,260,42,26,32,280,30*73
$GPGSV,3,2,12,27,79,201,29,21,40,273,34,18,38,312,37,05,27,127,35*7A
$GPGSV,3,3,12,28,12,048,26,22,05,309,00,10,05,127,00,12,03,172,00*70
$GPRMC,062058,A,3614.2429,N,13759.4589,E,006.5,270.7,180310,,,A*77
$GPVTG,270.7,T,,M,006.5,N,012.0,K,A*0F
$GPGGA,062113,3614.2276,N,13759.3749,E,1,04,02.2,00580.2,M,037.4,M,00,0000*4F
$GPGSA,A,3,24,09,26,15,,,,,,,,,02.5,02.2,00.9*03
$GPGSV,3,1,12,27,80,201,40,09,67,209,40,15,59,036,33,24,45,260,39*71
$GPGSV,3,2,12,21,40,272,34,18,39,312,33,26,32,280,35,05,27,127,25*75
$GPGSV,3,3,12,28,12,048,31,22,06,309,22,10,05,127,00,12,03,172,00*75
$GPRMC,062113,A,3614.2276,N,13759.3749,E,020.8,245.2,180310,,,A*76
$GPVTG,245.2,T,,M,020.8,N,038.6,K,A*0B
$GPGGA,062125,3614.2174,N,13759.2913,E,1,04,02.2,00582.6,M,037.4,M,00,0000*4D
$GPGSA,A,3,24,09,26,15,,,,,,,,,02.5,02.2,00.9*03
$GPGSV,3,1,12,27,80,201,35,09,67,209,43,15,59,036,30,24,45,260,47*7A
$GPGSV,3,2,12,21,40,272,41,18,39,312,36,26,32,280,36,05,27,127,26*72
$GPGSV,3,3,12,28,12,048,21,22,06,309,00,10,05,127,00,12,03,172,00*74
$GPRMC,062125,A,3614.2174,N,13759.2913,E,020.9,278.6,180310,,,A*79
$GPVTG,278.6,T,,M,020.9,N,038.8,K,A*0E
$GPGGA,062136,3614.2274,N,13759.2092,E,1,04,02.2,00582.6,M,037.4,M,00,0000*4C
$GPGSA,A,3,24,09,26,15,,,,,,,,,02.5,02.2,00.9*03
$GPGSV,3,1,12,27,80,201,33,09,67,209,41,15,59,036,36,24,45,260,42*7D
$GPGSV,3,2,12,21,40,272,39,18,39,312,38,26,32,280,37,05,27,127,28*7C
$GPGSV,3,3,12,28,12,048,26,22,06,309,00,10,05,127,00,12,03,172,00*73
$GPRMC,062136,A,3614.2274,N,13759.2092,E,022.3,275.8,180310,,,A*73
$GPVTG,275.8,T,,M,022.3,N,041.3,K,A*00
$GPGGA,062151,3614.2357,N,13759.1076,E,1,04,02.3,00580.6,M,037.4,M,00,0000*47
$GPGSA,A,3,24,09,26,15,,,,,,,,,02.5,02.3,00.9*02
$GPGSV,3,1,12,27,80,201,33,09,67,209,40,15,59,036,33,24,45,260,42*79
$GPGSV,3,2,12,21,40,272,39,18,39,312,35,26,32,280,37,05,27,127,22*7B
$GPGSV,3,3,12,28,12,048,23,22,06,309,00,10,05,127,00,12,03,172,00*76
$GPRMC,062151,A,3614.2357,N,13759.1076,E,018.8,279.6,180310,,,A*7B
$GPVTG,279.6,T,,M,018.8,N,034.8,K,A*09
$GPGGA,062206,3614.2442,N,13759.0152,E,1,04,02.3,00579.1,M,037.4,M,00,0000*42
$GPGSA,A,3,24,09,26,15,,,,,,,,,02.5,02.3,00.9*02
$GPGSV,3,1,12,27,80,201,36,09,67,209,41,15,59,036,35,24,45,260,42*7B
$GPGSV,3,2,12,21,40,272,40,18,39,312,34,26,32,280,37,05,27,127,23*75
$GPGSV,3,3,12,28,12,048,19,22,06,309,00,10,05,127,00,12,03,172,00*7F
$GPRMC,062206,A,3614.2442,N,13759.0152,E,020.4,278.5,180310,,,A*7A
$GPVTG,278.5,T,,M,020.4,N,037.8,K,A*0F
$GPGGA,062221,3614.2543,N,13758.9452,E,1,04,02.3,00579.6,M,037.4,M,00,0000*4D
$GPGSA,A,3,24,09,26,15,,,,,,,,,02.5,02.3,00.9*02
$GPGSV,3,1,12,27,80,201,31,09,67,209,42,15,59,036,34,24,45,260,40*7C
$GPGSV,3,2,12,21,40,272,38,18,39,312,36,26,32,280,37,05,27,127,00*79
$GPGSV,3,3,12,28,12,048,00,22,06,309,00,10,05,127,00,12,03,172,00*77
$GPRMC,062221,A,3614.2543,N,13758.9452,E,008.1,290.6,180310,,,A*78
$GPVTG,290.6,T,,M,008.1,N,015.0,K,A*0D
$GPGGA,062236,3614.2518,N,13758.9288,E,1,04,02.3,00580.9,M,037.4,M,00,0000*4D
$GPGSA,A,3,24,09,15,26,,,,,,,,,02.5,02.3,00.9*02
$GPGSV,3,1,12,27,80,201,30,09,67,209,41,15,59,036,37,24,45,260,42*7F
$GPGSV,3,2,12,21,40,272,39,18,39,312,39,26,32,280,34,05,27,127,00*74
$GPGSV,3,3,12,28,12,048,21,22,06,309,00,10,05,127,00,12,03,172,00*74
$GPRMC,062236,A,3614.2518,N,13758.9288,E,003.9,257.8,180310,,,A*77
$GPVTG,257.8,T,,M,003.9,N,007.2,K,A*0A
$GPGGA,062251,3614.2541,N,13758.9208,E,1,04,02.3,00583.7,M,037.4,M,00,0000*45
$GPGSA,A,3,24,09,15,26,,,,,,,,,02.5,02.3,00.9*02
$GPGSV,3,1,12,27,80,201,34,09,67,209,39,15,59,036,36,24,45,260,43*74
$GPGSV,3,2,12,21,40,272,38,18,39,312,36,26,32,280,36,05,27,127,28*72
$GPGSV,3,3,12,28,12,048,26,22,06,309,00,10,05,127,00,12,03,172,00*73
$GPRMC,062251,A,3614.2541,N,13758.9208,E,001.6,161.2,180310,,,A*73
$GPVTG,161.2,T,,M,001.6,N,002.9,K,A*05
$GPGGA,062306,3614.2527,N,13758.9215,E,1,04,02.3,00585.6,M,037.4,M,00,0000*4D
$GPGSA,A,3,24,09,15,26,,,,,,,,,02.5,02.3,00.9*02
$GPGSV,3,1,12,27,80,201,32,09,67,209,39,15,59,036,36,24,45,260,43*72
$GPGSV,3,2,12,21,40,272,37,18,39,312,33,26,32,280,36,05,27,127,00*72
$GPGSV,3,3,12,28,12,048,27,22,06,309,28,10,05,127,00,12,03,172,00*78
$GPRMC,062306,A,3614.2527,N,13758.9215,E,000.2,036.5,180310,,,A*7D
$GPVTG,036.5,T,,M,000.2,N,000.3,K,A*0C
$GPGGA,062328,3614.2663,N,13758.8859,E,1,04,02.3,00591.4,M,037.4,M,00,0000*46
$GPGSA,A,3,24,09,15,26,,,,,,,,,02.5,02.3,00.9*02
$GPGSV,3,1,12,09,68,210,41,15,58,037,36,24,45,258,45,26,32,281,37*72
$GPGSV,3,2,12,27,81,202,36,21,40,271,40,18,39,313,39,05,26,128,27*72
$GPGSV,3,3,12,28,12,047,00,22,06,310,00,10,04,128,00,12,04,172,00*79
$GPRMC,062328,A,3614.2663,N,13758.8859,E,009.0,278.0,180310,,,A*77
$GPVTG,278.0,T,,M,009.0,N,016.8,K,A*06
$GPGGA,062337,3614.2742,N,13758.8572,E,1,04,02.3,00598.2,M,037.4,M,00,0000*41
$GPGSA,A,3,24,09,15,26,,,,,,,,,02.5,02.3,00.9*02
$GPGSV,3,1,12,09,68,210,42,15,58,037,35,24,45,258,46,26,32,281,37*71
$GPGSV,3,2,12,27,81,202,35,21,40,271,41,18,39,313,38,05,26,128,29*7F
$GPGSV,3,3,12,28,12,047,21,22,06,310,24,10,04,128,00,12,04,172,20*7E
$GPRMC,062337,A,3614.2742,N,13758.8572,E,006.6,278.0,180310,,,A*76
$GPVTG,278.0,T,,M,006.6,N,012.3,K,A*00
$GPGGA,062352,3614.2718,N,13758.8307,E,1,04,02.3,00597.8,M,037.4,M,00,0000*4C
$GPGSA,A,3,24,09,15,26,,,,,,,,,02.5,02.3,00.9*02
$GPGSV,3,1,12,27,81,202,35,09,68,210,40,15,58,037,37,24,45,258,42*75
$GPGSV,3,2,12,21,40,271,37,18,39,313,38,26,32,281,36,05,26,128,27*71
$GPGSV,3,3,12,28,12,047,24,22,06,310,00,10,04,128,00,12,04,172,00*7F
$GPRMC,062352,A,3614.2718,N,13758.8307,E,001.1,235.8,180310,,,A*7F
$GPVTG,235.8,T,,M,001.1,N,002.0,K,A*03
$GPGGA,062407,3614.2699,N,13758.8326,E,1,04,02.3,00597.3,M,037.4,M,00,0000*4B
$GPGSA,A,3,24,09,15,26,,,,,,,,,02.5,02.3,00.9*02
$GPGSV,3,1,12,27,81,202,36,09,68,210,39,15,58,037,38,24,45,258,41*74
$GPGSV,3,2,12,21,40,271,36,18,39,313,39,26,32,281,36,05,26,128,27*71
$GPGSV,3,3,12,28,12,047,24,22,06,310,00,10,04,128,00,12,04,172,00*7F
$GPRMC,062407,A,3614.2699,N,13758.8326,E,000.6,323.1,180310,,,A*7A
$GPVTG,323.1,T,,M,000.6,N,001.1,K,A*08
$GPGGA,062422,3614.2694,N,13758.8336,E,1,04,02.3,00596.0,M,037.4,M,00,0000*42
$GPGSA,A,3,24,09,15,26,,,,,,,,,02.5,02.3,00.9*02
$GPGSV,3,1,12,27,81,202,37,09,68,211,39,15,58,038,38,24,45,258,40*7A
$GPGSV,3,2,12,21,40,271,37,18,40,313,39,26,33,281,32,05,26,128,00*7E
$GPGSV,3,3,12,28,12,046,00,22,07,310,00,12,04,172,00,10,04,128,00*79
$GPRMC,062422,A,3614.2694,N,13758.8336,E,001.6,145.7,180310,,,A*74
$GPVTG,145.7,T,,M,001.6,N,003.0,K,A*0E
$GPGGA,062437,3614.2712,N,13758.8342,E,1,04,02.3,00594.7,M,037.4,M,00,0000*4F
$GPGSA,A,3,24,09,15,26,,,,,,,,,02.5,02.3,00.9*02
$GPGSV,3,1,12,27,81,202,37,09,68,211,39,15,58,038,38,24,45,258,40*7A
$GPGSV,3,2,12,21,40,271,38,18,40,313,39,26,33,281,35,05,26,128,00*76
$GPGSV,3,3,12,28,12,046,00,22,07,310,00,12,04,172,00,10,04,128,00*79
$GPRMC,062437,A,3614.2712,N,13758.8342,E,000.5,020.6,180310,,,A*7D
$GPVTG,020.6,T,,M,000.5,N,000.9,K,A*05
$GPGGA,062452,3614.2717,N,13758.8348,E,1,04,02.3,00595.1,M,037.4,M,00,0000*44
$GPGSA,A,3,24,09,15,26,,,,,,,,,02.5,02.3,00.9*02
$GPGSV,3,1,12,27,81,202,37,09,68,211,39,15,58,038,39,24,45,258,40*7B
$GPGSV,3,2,12,21,40,271,38,18,40,313,38,26,33,281,35,05,26,128,27*72
$GPGSV,3,3,12,28,12,046,00,22,07,310,00,12,04,172,00,10,04,128,00*79
$GPRMC,062452,A,3614.2717,N,13758.8348,E,000.4,007.2,180310,,,A*71
$GPVTG,007.2,T,,M,000.4,N,000.8,K,A*04
$GPGGA,062507,3614.2735,N,13758.8097,E,1,04,02.3,00596.1,M,037.4,M,00,0000*47
$GPGSA,A,3,24,09,15,26,,,,,,,,,02.5,02.3,00.9*02
$GPGSV,3,1,12,27,81,202,31,09,68,211,38,15,58,038,36,24,45,258,43*70
$GPGSV,3,2,12,21,40,271,40,18,40,313,37,26,33,281,36,05,26,128,27*71
$GPGSV,3,3,12,28,12,046,21,22,07,310,00,12,04,172,00,10,04,128,00*7A
$GPRMC,062507,A,3614.2735,N,13758.8097,E,009.1,272.0,180310,,,A*7F
$GPVTG,272.0,T,,M,009.1,N,016.9,K,A*0C
$GPGGA,062522,3614.2798,N,13758.7489,E,1,04,02.3,00597.1,M,037.4,M,00,0000*42
$GPGSA,A,3,24,09,26,15,,,,,,,,,02.5,02.3,00.9*02
$GPGSV,3,1,12,27,81,202,31,09,68,211,41,15,58,038,36,24,45,258,43*7E
$GPGSV,3,2,12,21,40,271,40,18,40,313,38,26,33,281,37,05,26,128,00*7A
$GPGSV,3,3,12,28,12,046,31,22,07,310,00,12,04,172,35,10,04,128,00*7D
$GPRMC,062522,A,3614.2798,N,13758.7489,E,013.6,275.2,180310,,,A*72
$GPVTG,275.2,T,,M,013.6,N,025.2,K,A*0E
$GPGGA,062537,3614.2905,N,13758.6590,E,1,04,02.3,00598.0,M,037.4,M,00,0000*4A
$GPGSA,A,3,09,24,15,26,,,,,,,,,02.5,02.3,00.9*02
$GPGSV,3,1,12,27,81,202,35,09,68,211,41,15,58,038,37,24,45,258,42*7A
$GPGSV,3,2,12,21,40,271,39,18,40,313,36,26,33,281,37,05,26,128,00*7A
$GPGSV,3,3,12,28,12,046,00,22,07,310,30,12,04,172,00,10,04,128,00*7A
$GPRMC,062537,A,3614.2905,N,13758.6590,E,016.6,278.1,180310,,,A*7F
$GPVTG,278.1,T,,M,016.6,N,030.8,K,A*0B
$GPGGA,062558,3614.3091,N,13758.5390,E,1,04,02.3,00599.4,M,037.4,M,00,0000*46
$GPGSA,A,3,09,24,15,26,,,,,,,,,02.5,02.3,00.9*02
$GPGSV,3,1,12,09,69,211,39,15,57,039,36,24,45,256,44,26,33,282,37*71
$GPGSV,3,2,12,27,82,203,35,18,41,313,35,21,40,270,40,05,25,128,00*77
$GPGSV,3,3,12,28,12,046,00,22,07,310,00,12,05,171,00,10,03,128,00*7C
$GPRMC,062558,A,3614.3091,N,13758.5390,E,017.3,275.2,180310,,,A*7C
$GPVTG,275.2,T,,M,017.3,N,032.1,K,A*0A
$GPGGA,062609,3614.3266,N,13758.4592,E,1,04,02.3,00601.1,M,037.4,M,00,0000*49
$GPGSA,A,3,09,24,15,26,,,,,,,,,02.5,02.3,00.9*02
$GPGSV,3,1,12,09,69,211,38,15,57,039,36,24,45,256,45,26,33,282,38*7E
$GPGSV,3,2,12,27,82,203,36,18,41,313,38,21,40,270,40,05,25,128,22*79
$GPGSV,3,3,12,28,12,046,24,22,07,310,27,12,05,171,00,10,03,128,00*7F
$GPRMC,062609,A,3614.3266,N,13758.4592,E,019.5,279.7,180310,,,A*75
$GPVTG,279.7,T,,M,019.5,N,036.2,K,A*0C
$GPGGA,062620,3614.3362,N,13758.3862,E,1,04,02.3,00601.6,M,037.4,M,00,0000*45
$GPGSA,A,3,24,09,26,15,,,,,,,,,02.5,02.3,00.9*02
$GPGSV,3,1,12,27,82,203,35,09,69,211,39,15,57,039,34,24,45,256,42*75
$GPGSV,3,2,12,18,41,313,36,21,40,270,38,26,33,282,38,05,25,128,00*74
$GPGSV,3,3,12,28,12,046,29,22,07,310,00,12,05,171,26,10,03,128,00*73
$GPRMC,062620,A,3614.3362,N,13758.3862,E,019.5,279.4,180310,,,A*7D
$GPVTG,279.4,T,,M,019.5,N,036.2,K,A*0F
$GPGGA,062642,3614.3662,N,13758.2394,E,1,04,02.3,00606.0,M,037.4,M,00,0000*46
$GPGSA,A,3,24,09,26,15,,,,,,,,,02.5,02.3,00.9*02
$GPGSV,3,1,12,09,70,212,44,15,57,039,34,24,44,256,47,26,33,282,37*70
$GPGSV,3,2,12,27,82,203,36,18,41,313,31,21,40,269,43,05,25,129,29*71
$GPGSV,3,3,12,28,12,046,14,22,07,310,18,12,05,171,27,10,03,129,00*74
$GPRMC,062642,A,3614.3662,N,13758.2394,E,019.9,282.6,180310,,,A*75
$GPVTG,282.6,T,,M,019.9,N,036.9,K,A*0E
$GPGGA,062650,3614.3729,N,13758.1870,E,1,04,02.3,00605.9,M,037.4,M,00,0000*43
$GPGSA,A,3,24,09,26,15,,,,,,,,,02.5,02.3,00.9*02
$GPGSV,3,1,12,27,82,203,33,09,70,212,38,15,57,040,34,24,44,256,45*71
$GPGSV,3,2,12,18,41,313,42,21,40,269,32,26,33,282,32,05,25,129,34*79
$GPGSV,3,3,12,28,12,045,30,22,08,310,14,12,05,171,23,10,03,129,00*76
$GPRMC,062650,A,3614.3729,N,13758.1870,E,018.5,270.7,180310,,,A*7B
$GPVTG,270.7,T,,M,018.5,N,034.2,K,A*06
$GPGGA,062712,3614.3709,N,13758.1157,E,1,04,02.3,00611.2,M,037.4,M,00,0000*44
$GPGSA,A,3,24,09,15,26,,,,,,,,,02.5,02.3,00.9*02
$GPGSV,3,1,12,09,70,212,40,15,57,040,33,24,44,256,44,26,34,282,31*7F
$GPGSV,3,2,12,27,83,204,38,18,41,313,43,21,40,269,34,05,25,129,38*7C
$GPGSV,3,3,12,28,12,045,26,22,08,310,32,12,05,171,17,10,03,129,00*72
$GPRMC,062712,A,3614.3709,N,13758.1157,E,013.8,270.7,180310,,,A*74
$GPVTG,270.7,T,,M,013.8,N,025.6,K,A*04
$GPGGA,062727,3614.3775,N,13758.0307,E,1,04,02.3,00613.9,M,037.4,M,00,0000*46
$GPGSA,A,3,24,09,26,15,,,,,,,,,02.5,02.3,00.9*02
$GPGSV,3,1,12,09,70,212,42,15,57,040,34,24,44,256,47,26,34,283,25*7D
$GPGSV,3,2,12,27,83,204,38,18,41,313,37,21,40,269,44,05,25,129,37*77
$GPGSV,3,3,12,28,12,045,31,22,08,310,23,12,05,171,26,10,03,129,00*76
$GPRMC,062727,A,3614.3775,N,13758.0307,E,015.6,290.8,180310,,,A*76
$GPVTG,290.8,T,,M,015.6,N,029.0,K,A*07
$GPGGA,062742,3614.3874,N,13758.0059,E,1,04,02.3,00618.8,M,037.4,M,00,0000*49
$GPGSA,A,3,24,09,26,15,,,,,,,,,02.5,02.3,00.9*02
$GPGSV,3,1,12,09,70,212,38,15,57,040,25,24,44,256,41,26,34,283,39*7B
$GPGSV,3,2,12,27,83,204,36,18,41,313,40,21,40,269,44,05,25,129,30*7E
$GPGSV,3,3,12,28,12,045,19,22,08,310,26,12,05,171,32,10,03,129,00*7C
$GPRMC,062742,A,3614.3874,N,13758.0059,E,000.8,275.9,180310,,,A*73
$GPVTG,275.9,T,,M,000.8,N,001.6,K,A*0B
$GPGGA,062757,3614.3999,N,13757.9628,E,1,06,08.0,00615.8,M,037.4,M,00,0000*4F
$GPGSA,A,3,24,09,26,15,21,27,,,,,,,16.4,08.0,14.2*07
$GPGSV,3,1,12,27,83,204,37,09,70,212,31,15,57,040,30,24,44,255,38*77
$GPGSV,3,2,12,18,41,313,40,21,40,268,37,26,34,283,32,05,24,129,26*7B
$GPGSV,3,3,12,28,12,045,26,22,08,310,28,12,05,171,21,10,02,129,00*7D
$GPRMC,062757,A,3614.3999,N,13757.9628,E,008.0,272.0,180310,,,A*7D
$GPVTG,272.0,T,,M,008.0,N,014.8,K,A*0F
$GPGGA,062806,3614.3944,N,13757.9409,E,1,06,08.0,00594.7,M,037.4,M,00,0000*40
$GPGSA,A,3,24,21,09,27,15,26,,,,,,,16.2,08.0,14.1*02
$GPGSV,3,1,12,27,83,204,39,09,70,212,40,15,57,040,26,24,44,255,42*75
$GPGSV,3,2,12,18,41,313,38,21,40,268,41,26,34,283,23,05,24,129,00*71
$GPGSV,3,3,12,28,12,045,22,22,08,310,28,12,05,171,26,10,02,129,00*7E
$GPRMC,062806,A,3614.3944,N,13757.9409,E,010.9,259.8,180310,,,A*76
$GPVTG,259.8,T,,M,010.9,N,020.2,K,A*03
$GPGGA,062827,3614.3586,N,13757.9121,E,1,05,02.2,00583.8,M,037.4,M,00,0000*4C
$GPGSA,A,3,09,24,15,27,26,,,,,,,,02.4,02.2,00.9*07
$GPGSV,3,1,12,27,83,204,32,09,71,212,38,15,57,041,30,24,44,255,29*7B
$GPGSV,3,2,12,21,40,268,00,26,34,283,16,18,42,313,26,05,24,129,35*78
$GPGSV,3,3,12,28,11,045,31,22,08,310,00,12,06,171,31,10,02,129,00*70
$GPRMC,062827,A,3614.3586,N,13757.9121,E,012.2,179.6,180310,,,A*7E
$GPVTG,179.6,T,,M,012.2,N,022.7,K,A*02
$GPGGA,062842,3614.3017,N,13757.9260,E,1,06,07.6,00544.5,M,037.4,M,00,0000*40
$GPGSA,A,3,09,24,15,27,26,21,,,,,,,15.4,07.6,13.4*0C
$GPGSV,3,1,12,27,83,204,29,09,71,212,39,15,57,041,30,24,44,255,34*7C
$GPGSV,3,2,12,21,40,268,27,26,34,283,26,18,42,313,28,05,24,129,38*7D
$GPGSV,3,3,12,28,11,045,22,22,08,310,21,12,06,171,23,10,02,129,00*72
$GPRMC,062842,A,3614.3017,N,13757.9260,E,008.9,177.7,180310,,,A*79
$GPVTG,177.7,T,,M,008.9,N,016.5,K,A*08
$GPGGA,062857,3614.2776,N,13757.9313,E,1,06,07.5,00522.1,M,037.4,M,00,0000*47
$GPGSA,A,3,09,24,15,27,26,21,,,,,,,15.1,07.5,13.1*0F
$GPGSV,3,1,12,27,83,204,23,09,71,213,40,15,57,041,31,24,44,255,38*74
$GPGSV,3,2,12,18,42,313,30,21,40,268,34,26,34,283,35,05,24,129,35*79
$GPGSV,3,3,12,28,11,045,29,22,08,310,19,12,06,171,21,10,02,129,00*70
$GPRMC,062857,A,3614.2776,N,13757.9313,E,004.1,173.1,180310,,,A*7F
$GPVTG,173.1,T,,M,004.1,N,007.6,K,A*0D
$GPGGA,062912,3614.2751,N,13757.9199,E,1,06,07.4,00562.7,M,037.4,M,00,0000*41
$GPGSA,A,3,09,24,15,27,26,21,,,,,,,14.8,07.4,12.8*0E
$GPGSV,3,1,12,27,84,205,31,09,71,213,40,15,57,041,31,24,44,255,35*7C
$GPGSV,3,2,12,18,42,313,39,21,40,268,39,26,34,283,35,05,24,129,30*78
$GPGSV,3,3,12,28,11,045,30,22,08,310,19,12,06,171,21,10,02,129,00*78
$GPRMC,062912,A,3614.2751,N,13757.9199,E,001.5,189.1,180310,,,A*7E
$GPVTG,189.1,T,,M,001.5,N,002.8,K,A*02
$GPGGA,062927,3614.2588,N,13757.9082,E,1,06,07.2,00587.3,M,037.4,M,00,0000*43
$GPGSA,A,3,09,24,15,27,26,21,,,,,,,14.5,07.2,12.5*08
$GPGSV,3,1,12,27,84,205,40,09,71,213,41,15,57,041,31,24,44,255,36*78
$GPGSV,3,2,12,18,42,313,39,21,40,268,29,26,34,283,25,05,24,129,36*7E
$GPGSV,3,3,12,28,11,045,24,22,08,310,27,12,06,171,30,10,02,129,00*70
$GPRMC,062927,A,3614.2588,N,13757.9082,E,007.7,273.3,180310,,,A*75
$GPVTG,273.3,T,,M,007.7,N,014.3,K,A*0E
$GPGGA,062942,3614.2906,N,13757.8471,E,1,06,07.1,00590.9,M,037.4,M,00,0000*4C
$GPGSA,A,3,09,24,15,27,26,21,,,,,,,14.1,07.1,12.2*08
$GPGSV,3,1,12,27,84,205,38,09,71,213,43,15,56,041,29,24,44,254,36*7C
$GPGSV,3,2,12,18,42,313,32,21,40,267,41,26,34,284,30,05,24,129,36*77
$GPGSV,3,3,12,28,11,044,17,22,09,310,20,12,06,171,18,10,02,129,00*7D
$GPRMC,062942,A,3614.2906,N,13757.8471,E,017.5,297.0,180310,,,A*7F
$GPVTG,297.0,T,,M,017.5,N,032.5,K,A*06
$GPGGA,062951,3614.3085,N,13757.8002,E,1,06,07.0,00592.2,M,037.4,M,00,0000*45
$GPGSA,A,3,24,21,27,09,15,26,,,,,,,14.0,07.0,12.1*0B
$GPGSV,3,1,12,27,84,205,35,09,71,213,36,15,56,041,33,24,44,254,41*78
$GPGSV,3,2,12,18,42,313,38,21,40,267,39,26,34,284,30,05,24,129,00*77
$GPGSV,3,3,12,28,11,044,00,22,09,310,00,12,06,171,00,10,02,129,00*70
$GPRMC,062951,A,3614.3085,N,13757.8002,E,014.7,289.8,180310,,,A*78
$GPVTG,289.8,T,,M,014.7,N,027.3,K,A*02
$GPGGA,063006,3614.3300,N,13757.7793,E,1,06,06.8,00595.8,M,037.4,M,00,0000*45
$GPGSA,A,3,24,26,09,21,27,15,,,,,,,13.6,06.8,11.8*09
$GPGSV,3,1,12,27,84,205,35,09,71,213,37,15,56,041,24,24,44,254,38*71
$GPGSV,3,2,12,18,42,313,37,21,40,267,36,26,34,284,39,05,24,129,29*75
$GPGSV,3,3,12,28,11,044,00,22,09,310,28,12,06,171,00,10,02,129,00*7A
$GPRMC,063006,A,3614.3300,N,13757.7793,E,001.7,291.3,180310,,,A*7A
$GPVTG,291.3,T,,M,001.7,N,003.1,K,A*00
$GPGGA,063027,3614.3339,N,13757.7657,E,1,06,06.6,00580.4,M,037.4,M,00,0000*43
$GPGSA,A,3,26,21,27,24,09,15,,,,,,,13.2,06.6,11.4*0F
$GPGSV,3,1,12,27,84,205,37,09,72,213,35,15,56,042,29,24,44,254,37*73
$GPGSV,3,2,12,21,40,267,35,26,35,284,38,18,42,313,40,05,23,130,28*78
$GPGSV,3,3,12,28,11,044,00,22,09,310,00,12,06,170,00,10,02,129,00*71
$GPRMC,063027,A,3614.3339,N,13757.7657,E,010.7,295.9,180310,,,A*74
$GPVTG,295.9,T,,M,010.7,N,019.9,K,A*0D
$GPGGA,063042,3614.3572,N,13757.7022,E,1,06,06.5,00589.2,M,037.4,M,00,0000*41
$GPGSA,A,3,26,21,27,24,09,15,,,,,,,12.9,06.5,11.1*03
$GPGSV,3,1,12,27,84,205,38,09,72,213,43,15,56,042,30,24,44,254,35*77
$GPGSV,3,2,12,21,40,267,41,26,35,284,30,18,42,313,40,05,23,130,33*79
$GPGSV,3,3,12,28,11,044,00,22,09,310,18,12,06,170,22,10,02,129,00*78
$GPRMC,063042,A,3614.3572,N,13757.7022,E,013.9,296.8,180310,,,A*75
$GPVTG,296.8,T,,M,013.9,N,025.7,K,A*03
$GPGGA,063051,3614.3737,N,13757.6588,E,1,06,06.4,00585.2,M,037.4,M,00,0000*49
$GPGSA,A,3,09,24,21,27,15,26,,,,,,,12.7,06.4,11.0*0D
$GPGSV,3,1,12,27,84,205,36,09,72,213,40,15,56,042,31,24,44,254,40*79
$GPGSV,3,2,12,18,42,313,37,21,40,267,39,26,35,284,27,05,23,130,34*77
$GPGSV,3,3,12,28,11,044,00,22,09,310,00,12,06,170,00,10,02,129,00*71
$GPRMC,063051,A,3614.3737,N,13757.6588,E,015.9,290.3,180310,,,A*7B
$GPVTG,290.3,T,,M,015.9,N,029.5,K,A*06
$GPGGA,063106,3614.4014,N,13757.5855,E,1,06,06.3,00580.3,M,037.4,M,00,0000*46
$GPGSA,A,3,09,21,27,24,15,26,,,,,,,12.4,06.3,10.7*0F
$GPGSV,3,1,12,27,84,205,35,09,72,213,41,15,56,042,32,24,44,254,32*7D
$GPGSV,3,2,12,18,42,313,38,21,40,267,41,26,35,284,24,05,23,130,33*73
$GPGSV,3,3,12,28,11,044,31,22,09,310,34,12,06,170,00,10,02,129,00*74
$GPRMC,063106,A,3614.4014,N,13757.5855,E,015.7,296.4,180310,,,A*78
$GPVTG,296.4,T,,M,015.7,N,029.1,K,A*0D
$GPGGA,063121,3614.4203,N,13757.5469,E,1,06,06.2,00581.6,M,037.4,M,00,0000*41
$GPGSA,A,3,09,24,21,27,15,26,,,,,,,12.1,06.2,10.4*08
$GPGSV,3,1,12,27,84,205,36,09,72,213,41,15,56,042,31,24,44,254,42*7A
$GPGSV,3,2,12,18,42,313,38,21,40,267,41,26,35,284,29,05,23,130,34*79
$GPGSV,3,3,12,28,11,044,00,22,09,310,00,12,06,170,26,10,02,129,00*75
$GPRMC,063121,A,3614.4203,N,13757.5469,E,001.4,282.3,180310,,,A*7E
$GPVTG,282.3,T,,M,001.4,N,002.7,K,A*06
$GPGGA,063136,3614.4288,N,13757.5225,E,1,06,06.0,00574.0,M,037.4,M,00,0000*44
$GPGSA,A,3,21,09,24,27,15,26,,,,,,,11.9,06.0,10.2*07
$GPGSV,3,1,12,27,84,205,36,09,72,213,40,15,56,042,35,24,44,254,39*73
$GPGSV,3,2,12,18,42,313,38,21,40,267,41,26,35,284,29,05,23,130,33*7E
$GPGSV,3,3,12,28,11,044,00,22,09,310,28,12,06,170,00,10,02,129,00*7B
$GPRMC,063136,A,3614.4288,N,13757.5225,E,010.0,281.8,180310,,,A*79
$GPVTG,281.8,T,,M,010.0,N,018.5,K,A*03
$GPGGA,063151,3614.4498,N,13757.4574,E,1,04,06.1,00574.2,M,037.4,M,00,0000*41
$GPGSA,A,3,21,24,09,27,,,,,,,,,06.2,06.1,00.9*01
$GPGSV,3,1,12,27,84,205,37,09,72,213,38,15,56,042,00,24,44,254,39*7B
$GPGSV,3,2,12,18,42,313,38,21,40,267,40,26,35,284,00,05,23,130,35*72
$GPGSV,3,3,12,28,11,044,00,22,09,310,27,12,06,170,00,10,02,129,00*74
$GPRMC,063151,A,3614.4498,N,13757.4574,E,010.7,286.3,180310,,,A*76
$GPVTG,286.3,T,,M,010.7,N,019.9,K,A*05
$GPGGA,063206,3614.4601,N,13757.4502,E,1,06,05.8,00585.5,M,037.4,M,00,0000*42
$GPGSA,A,3,21,24,09,27,15,26,,,,,,,11.3,05.8,09.7*0B
$GPGSV,3,1,12,27,84,205,38,09,72,213,40,15,56,042,30,24,44,254,39*78
$GPGSV,3,2,12,18,42,313,39,21,40,267,39,26,35,284,26,05,23,130,36*7A
$GPGSV,3,3,12,28,11,044,00,22,09,310,00,12,06,170,00,10,02,129,00*71
$GPRMC,063206,A,3614.4601,N,13757.4502,E,000.9,070.7,180310,,,A*74
$GPVTG,070.7,T,,M,000.9,N,001.6,K,A*03
$GPGGA,063221,3614.4545,N,13757.4454,E,1,06,05.7,00607.2,M,037.4,M,00,0000*47
$GPGSA,A,3,21,24,09,27,26,15,,,,,,,11.1,05.7,09.5*04
$GPGSV,3,1,12,27,84,205,38,09,72,213,38,15,56,042,36,24,44,254,39*71
$GPGSV,3,2,12,18,42,313,39,21,40,267,41,26,35,284,29,05,23,130,28*75
$GPGSV,3,3,12,28,11,044,00,22,09,310,23,12,06,170,00,10,02,129,00*70
$GPRMC,063221,A,3614.4545,N,13757.4454,E,004.5,230.7,180310,,,A*7E
$GPVTG,230.7,T,,M,004.5,N,008.3,K,A*01
$GPGGA,063236,3614.4733,N,13757.3915,E,1,06,05.6,00615.6,M,037.4,M,00,0000*4B
$GPGSA,A,3,24,21,09,27,15,26,,,,,,,10.8,05.6,09.3*0B
$GPGSV,3,1,12,27,85,207,37,09,73,215,39,15,56,043,32,24,43,252,41*70
$GPGSV,3,2,12,18,43,313,39,21,39,265,41,26,35,285,30,05,23,130,31*79
$GPGSV,3,3,12,28,11,043,00,22,10,311,30,12,07,170,00,10,01,130,00*76
$GPRMC,063236,A,3614.4733,N,13757.3915,E,012.8,297.7,180310,,,A*73
$GPVTG,297.7,T,,M,012.8,N,023.8,K,A*04
$GPGGA,063251,3614.5102,N,13757.3214,E,1,06,05.5,00624.5,M,037.4,M,00,0000*47
$GPGSA,A,3,24,26,21,27,09,15,,,,,,,10.6,05.5,09.1*04
$GPGSV,3,1,12,27,85,207,36,09,73,215,33,15,56,043,22,24,43,252,40*7B
$GPGSV,3,2,12,18,43,313,36,21,39,265,39,26,35,285,39,05,23,130,32*73
$GPGSV,3,3,12,28,11,043,00,22,10,311,29,12,07,170,00,10,01,130,00*7E
$GPRMC,063251,A,3614.5102,N,13757.3214,E,018.3,298.8,180310,,,A*7C
$GPVTG,298.8,T,,M,018.3,N,033.9,K,A*05
$GPGGA,063306,3614.5624,N,13757.2311,E,1,06,05.4,00646.5,M,037.4,M,00,0000*47
$GPGSA,A,3,21,26,24,27,09,15,,,,,,,10.4,05.4,08.9*0E
$GPGSV,3,1,12,27,85,207,35,09,73,215,27,15,56,043,26,24,43,252,38*76
$GPGSV,3,2,12,18,43,313,39,21,39,265,39,26,35,285,38,05,23,130,20*7E
$GPGSV,3,3,12,28,11,043,00,22,10,311,25,12,07,170,00,10,01,130,00*72
$GPRMC,063306,A,3614.5624,N,13757.2311,E,020.9,315.6,180310,,,A*72
$GPVTG,315.6,T,,M,020.9,N,038.7,K,A*0B
$GPGGA,063321,3614.6472,N,13757.1947,E,1,06,05.3,00627.2,M,037.4,M,00,0000*4D
$GPGSA,A,3,26,27,21,24,09,15,,,,,,,10.1,05.3,08.7*02
$GPGSV,3,1,12,27,85,207,39,09,73,215,31,15,56,043,29,24,43,252,32*78
$GPGSV,3,2,12,18,43,313,39,21,39,265,38,26,35,285,39,05,23,130,00*7C
$GPGSV,3,3,12,28,11,043,00,22,10,311,27,12,07,170,31,10,01,130,00*72
$GPRMC,063321,A,3614.6472,N,13757.1947,E,019.3,336.3,180310,,,A*7B
$GPVTG,336.3,T,,M,019.3,N,035.9,K,A*0C
$GPGGA,063336,3614.7294,N,13757.1636,E,1,06,05.2,00622.7,M,037.4,M,00,0000*4C
$GPGSA,A,3,27,24,15,26,21,09,,,,,,,09.9,05.2,08.5*01
$GPGSV,3,1,12,27,85,207,38,09,73,215,35,15,56,043,37,24,43,252,39*79
$GPGSV,3,2,12,18,43,313,34,21,39,265,35,26,35,285,37,05,23,130,00*72
$GPGSV,3,3,12,28,11,043,00,22,10,311,24,12,07,170,25,10,01,130,00*74
$GPRMC,063336,A,3614.7294,N,13757.1636,E,020.3,351.8,180310,,,A*7B
$GPVTG,351.8,T,,M,020.3,N,037.7,K,A*00
$GPGGA,063351,3614.7957,N,13757.1481,E,1,06,05.1,00608.3,M,037.4,M,00,0000*48
$GPGSA,A,3,15,21,27,09,24,26,,,,,,,09.7,05.1,08.3*0A
$GPGSV,3,1,12,27,85,207,35,09,73,215,36,15,56,043,37,24,43,252,35*7B
$GPGSV,3,2,12,18,43,313,39,21,39,265,34,26,35,285,33,05,23,130,00*7A
$GPGSV,3,3,12,28,11,043,00,22,10,311,00,12,07,170,20,10,01,130,00*77
$GPRMC,063351,A,3614.7957,N,13757.1481,E,014.2,354.5,180310,,,A*7E
$GPVTG,354.5,T,,M,014.2,N,026.4,K,A*0D
$GPGGA,063406,3614.8091,N,13757.1480,E,1,06,05.0,00590.4,M,037.4,M,00,0000*44
$GPGSA,A,3,15,21,09,27,26,24,,,,,,,09.5,05.0,08.1*0B
$GPGSV,3,1,12,27,85,207,34,09,73,215,39,15,56,043,38,24,43,252,28*76
$GPGSV,3,2,12,18,43,313,37,21,39,265,38,26,35,285,33,05,23,130,00*78
$GPGSV,3,3,12,28,11,043,00,22,10,311,00,12,07,170,30,10,01,130,00*76
$GPRMC,063406,A,3614.8091,N,13757.1480,E,000.9,289.6,180310,,,A*7A
$GPVTG,289.6,T,,M,000.9,N,001.6,K,A*06
$GPGGA,063421,3614.8140,N,13757.1455,E,1,06,04.9,00601.5,M,037.4,M,00,0000*46
$GPGSA,A,3,09,21,15,27,26,24,,,,,,,09.3,04.9,07.9*02
$GPGSV,3,1,12,27,85,207,35,09,73,215,38,15,56,043,36,24,43,252,30*71
$GPGSV,3,2,12,18,43,313,40,21,39,265,37,26,35,285,26,05,23,130,00*73
$GPGSV,3,3,12,28,11,043,00,22,10,311,00,12,07,170,28,10,01,130,00*7F
$GPRMC,063421,A,3614.8140,N,13757.1455,E,001.7,174.4,180310,,,A*76
$GPVTG,174.4,T,,M,001.7,N,003.2,K,A*0C
$GPGGA,063436,3614.8171,N,13757.1422,E,1,06,04.8,00610.2,M,037.4,M,00,0000*44
$GPGSA,A,3,21,15,27,09,26,24,,,,,,,09.1,04.8,07.8*00
$GPGSV,3,1,12,27,85,207,34,09,73,215,36,15,56,043,38,24,43,252,26*77
$GPGSV,3,2,12,18,43,313,22,21,39,265,38,26,35,285,34,05,23,130,00*7B
$GPGSV,3,3,12,28,11,043,00,22,10,311,00,12,07,170,26,10,01,130,00*71
$GPRMC,063436,A,3614.8171,N,13757.1422,E,003.3,008.2,180310,,,A*78
$GPVTG,008.2,T,,M,003.3,N,006.2,K,A*03
$GPGGA,063451,3614.8609,N,13757.1357,E,1,06,04.7,00618.8,M,037.4,M,00,0000*45
$GPGSA,A,3,24,15,26,27,21,09,,,,,,,09.0,04.7,07.6*00
$GPGSV,3,1,12,27,85,207,34,09,73,215,33,15,56,043,37,24,43,252,39*73
$GPGSV,3,2,12,18,43,313,40,21,39,265,31,26,35,285,35,05,23,130,00*77
$GPGSV,3,3,12,28,11,043,00,22,10,311,28,12,07,170,28,10,01,130,00*75
$GPRMC,063451,A,3614.8609,N,13757.1357,E,014.8,349.8,180310,,,A*75
$GPVTG,349.8,T,,M,014.8,N,027.4,K,A*07
$GPGGA,063506,3614.9349,N,13757.1027,E,1,06,04.6,00630.5,M,037.4,M,00,0000*44
$GPGSA,A,3,27,24,15,21,09,26,,,,,,,08.8,04.6,07.5*0B
$GPGSV,3,1,12,27,85,207,40,09,73,215,35,15,56,043,38,24,43,252,39*79
$GPGSV,3,2,12,18,43,313,36,21,39,265,33,26,35,285,33,05,23,130,33*72
$GPGSV,3,3,12,28,11,043,00,22,10,311,00,12,07,170,35,10,01,130,00*73
$GPRMC,063506,A,3614.9349,N,13757.1027,E,021.9,349.6,180310,,,A*7B
$GPVTG,349.6,T,,M,021.9,N,040.5,K,A*0E
$GPGGA,063521,3615.0363,N,13757.0835,E,1,06,04.6,00632.3,M,037.4,M,00,0000*4F
$GPGSA,A,3,27,24,15,26,09,21,,,,,,,08.6,04.6,07.3*03
$GPGSV,3,1,12,27,85,207,39,09,73,215,33,15,56,043,36,24,43,252,39*7F
$GPGSV,3,2,12,18,43,313,35,21,39,265,33,26,35,285,36,05,23,130,31*76
$GPGSV,3,3,12,28,11,043,00,22,10,311,27,12,07,170,26,10,01,130,00*74
$GPRMC,063521,A,3615.0363,N,13757.0835,E,027.6,348.6,180310,,,A*7C
$GPVTG,348.6,T,,M,027.6,N,051.1,K,A*02
$GPGGA,063536,3615.1511,N,13757.0638,E,1,06,04.5,00626.0,M,037.4,M,00,0000*4D
$GPGSA,A,3,27,24,15,09,26,21,,,,,,,08.5,04.5,07.2*02
$GPGSV,3,1,12,27,87,211,40,09,74,216,35,15,55,045,37,18,44,313,39*7E
$GPGSV,3,2,12,24,43,251,39,21,39,264,33,26,36,286,36,05,21,131,30*71
$GPGSV,3,3,12,22,11,311,26,28,10,042,00,12,08,169,33,10,00,130,00*76
$GPRMC,063536,A,3615.1511,N,13757.0638,E,028.7,351.5,180310,,,A*7E
$GPVTG,351.5,T,,M,028.7,N,053.3,K,A*07
$GPGGA,063551,3615.2726,N,13757.0301,E,1,06,04.4,00631.6,M,037.4,M,00,0000*47
$GPGSA,A,3,27,24,09,15,21,26,,,,,,,08.3,04.4,07.0*07
$GPGSV,3,1,12,27,87,211,39,09,74,216,34,15,55,045,34,18,44,313,42*7E
$GPGSV,3,2,12,24,43,251,37,21,39,264,34,26,36,286,26,05,21,131,00*7A
$GPGSV,3,3,12,22,11,311,28,28,10,042,00,12,08,169,29,10,00,130,00*73
$GPRMC,063551,A,3615.2726,N,13757.0301,E,029.7,343.6,180310,,,A*74
$GPVTG,343.6,T,,M,029.7,N,055.1,K,A*02
$GPGGA,063606,3615.3715,N,13756.9889,E,1,05,03.4,00604.3,M,037.4,M,00,0000*43
$GPGSA,A,3,27,21,09,15,24,,,,,,,,03.5,03.4,00.9*07
$GPGSV,3,1,12,27,87,211,40,09,74,216,33,15,55,045,34,18,44,313,41*74
$GPGSV,3,2,12,24,43,251,34,21,39,264,34,26,36,286,00,05,21,131,28*77
$GPGSV,3,3,12,22,11,311,26,28,10,042,00,12,08,169,32,10,00,130,00*77
$GPRMC,063606,A,3615.3715,N,13756.9889,E,024.0,340.9,180310,,,A*71
$GPVTG,340.9,T,,M,024.0,N,044.6,K,A*03
$GPGGA,063621,3615.4800,N,13756.9397,E,1,06,04.3,00607.3,M,037.4,M,00,0000*4E
$GPGSA,A,3,27,21,24,09,15,26,,,,,,,08.0,04.3,06.8*0A
$GPGSV,3,1,12,27,87,211,39,09,74,216,29,15,55,045,32,18,44,313,40*76
$GPGSV,3,2,12,24,43,251,30,21,39,264,35,26,36,286,29,05,21,131,33*73
$GPGSV,3,3,12,22,11,311,23,28,10,042,00,12,08,169,27,10,00,130,00*76
$GPRMC,063621,A,3615.4800,N,13756.9397,E,025.3,343.3,180310,,,A*77
$GPVTG,343.3,T,,M,025.3,N,046.9,K,A*05
$GPGGA,063636,3615.6014,N,13756.8969,E,1,05,02.4,00597.8,M,037.4,M,00,0000*4E
$GPGSA,A,3,27,15,21,26,09,,,,,,,,02.6,02.4,00.9*06
$GPGSV,3,1,12,27,87,211,40,09,74,216,28,15,55,045,37,18,44,313,40*7C
$GPGSV,3,2,12,24,43,251,00,21,39,264,35,26,36,286,32,05,21,131,30*79
$GPGSV,3,3,12,22,11,311,25,28,10,042,00,12,08,169,29,10,00,130,00*7E
$GPRMC,063636,A,3615.6014,N,13756.8969,E,028.0,343.9,180310,,,A*70
$GPVTG,343.9,T,,M,028.0,N,052.0,K,A*0D
$GPGGA,063651,3615.7083,N,13756.8507,E,1,06,04.1,00599.0,M,037.4,M,00,0000*42
$GPGSA,A,3,21,27,26,15,24,09,,,,,,,07.7,04.1,06.5*0D
$GPGSV,3,1,12,27,87,211,39,09,74,216,28,15,55,045,37,18,44,313,39*7C
$GPGSV,3,2,12,24,43,251,34,21,39,264,41,26,36,286,40,05,21,131,29*70
$GPGSV,3,3,12,22,11,311,29,28,10,042,00,12,08,169,23,10,00,130,00*78
$GPRMC,063651,A,3615.7083,N,13756.8507,E,025.7,332.4,180310,,,A*7B
$GPVTG,332.4,T,,M,025.7,N,047.6,K,A*0E
$GPGGA,063706,3615.7912,N,13756.7904,E,1,05,03.5,00606.6,M,037.4,M,00,0000*43
$GPGSA,A,3,27,21,09,24,15,,,,,,,,03.7,03.5,00.9*04
$GPGSV,3,1,12,27,87,211,38,09,74,216,37,15,55,045,34,18,44,313,41*7F
$GPGSV,3,2,12,24,43,251,36,21,39,264,38,26,36,286,00,05,21,131,29*78
$GPGSV,3,3,12,22,11,311,24,28,10,042,00,12,08,169,32,10,00,130,00*75
$GPRMC,063706,A,3615.7912,N,13756.7904,E,018.2,328.6,180310,,,A*7B
$GPVTG,328.6,T,,M,018.2,N,033.8,K,A*01
$GPGGA,063721,3615.8245,N,13756.7621,E,1,06,04.0,00623.2,M,037.4,M,00,0000*4A
$GPGSA,A,3,27,21,15,09,24,26,,,,,,,07.5,04.0,06.3*08
$GPGSV,3,1,12,27,87,211,40,09,74,216,36,15,55,045,38,18,44,313,37*7C
$GPGSV,3,2,12,24,43,251,36,21,39,264,39,26,36,286,35,05,21,131,34*73
$GPGSV,3,3,12,22,11,311,32,28,10,042,00,12,08,169,29,10,00,130,00*78
$GPRMC,063721,A,3615.8245,N,13756.7621,E,006.2,327.8,180310,,,A*7E
$GPVTG,327.8,T,,M,006.2,N,011.5,K,A*02
$GPGGA,063736,3615.8571,N,13756.7334,E,1,06,04.0,00641.7,M,037.4,M,00,0000*4C
$GPGSA,A,3,27,21,09,15,24,26,,,,,,,07.4,04.0,06.2*08
$GPGSV,3,1,12,27,87,211,41,09,74,216,34,15,55,045,34,18,44,313,38*7C
$GPGSV,3,2,12,24,43,251,35,21,39,264,38,26,36,286,30,05,21,131,26*77
$GPGSV,3,3,12,22,11,311,27,28,10,042,00,12,08,169,26,10,00,130,00*73
$GPRMC,063736,A,3615.8571,N,13756.7334,E,014.1,319.9,180310,,,A*75
$GPVTG,319.9,T,,M,014.1,N,026.2,K,A*0D
$GPGGA,063751,3615.9218,N,13756.6865,E,1,06,03.9,00630.5,M,037.4,M,00,0000*40
$GPGSA,A,3,26,27,09,21,24,15,,,,,,,07.2,03.9,06.1*03
$GPGSV,3,1,12,27,87,211,38,09,74,216,37,15,55,045,34,18,44,313,40*7E
$GPGSV,3,2,12,24,43,251,36,21,39,264,37,26,36,286,39,05,21,131,25*71
$GPGSV,3,3,12,22,11,311,33,28,10,042,00,12,08,169,30,10,00,130,00*71
$GPRMC,063751,A,3615.9218,N,13756.6865,E,021.5,332.1,180310,,,A*70
$GPVTG,332.1,T,,M,021.5,N,039.9,K,A*0B
$GPGGA,063806,3615.9704,N,13756.6562,E,1,06,03.8,00604.9,M,037.4,M,00,0000*45
$GPGSA,A,3,09,27,21,26,24,15,,,,,,,07.1,03.8,06.0*00
$GPGSV,3,1,12,27,87,211,39,09,74,216,40,15,55,045,28,18,44,313,40*72
$GPGSV,3,2,12,24,43,251,40,21,39,264,39,26,36,286,38,05,21,131,37*7C
$GPGSV,3,3,12,22,11,311,31,28,10,042,00,12,08,169,27,10,00,130,00*75
$GPRMC,063806,A,3615.9704,N,13756.6562,E,013.3,344.9,180310,,,A*71
$GPVTG,344.9,T,,M,013.3,N,024.7,K,A*07
$GPGGA,063821,3615.9823,N,13756.5646,E,1,06,03.8,00590.2,M,037.4,M,00,0000*49
$GPGSA,A,3,09,26,27,21,15,24,,,,,,,07.0,03.8,05.9*0B
$GPGSV,3,1,12,27,87,211,37,09,74,216,39,15,55,045,33,18,44,313,36*79
$GPGSV,3,2,12,24,43,251,35,21,39,264,35,26,36,286,38,05,21,131,36*73
$GPGSV,3,3,12,22,11,311,30,28,10,042,31,12,08,169,31,10,00,130,00*71
$GPRMC,063821,A,3615.9823,N,13756.5646,E,022.9,306.3,180310,,,A*7C
$GPVTG,306.3,T,,M,022.9,N,042.5,K,A*01
$GPGGA,063836,3616.0569,N,13756.4596,E,1,06,03.7,00591.1,M,037.4,M,00,0000*44
$GPGSA,A,3,21,26,27,09,15,24,,,,,,,06.9,03.7,05.8*0D
$GPGSV,3,1,11,27,88,224,37,09,76,218,34,15,54,047,33,18,46,313,38*7D
$GPGSV,3,2,11,24,42,249,33,21,39,262,40,26,37,288,39,05,20,132,36*76
$GPGSV,3,3,11,22,12,311,29,28,10,041,27,12,09,169,30,,,,*4E
$GPRMC,063836,A,3616.0569,N,13756.4596,E,024.1,309.6,180310,,,A*78
$GPVTG,309.6,T,,M,024.1,N,044.6,K,A*00
$GPGGA,063851,3616.0903,N,13756.3933,E,1,06,03.7,00583.1,M,037.4,M,00,0000*42
$GPGSA,A,3,15,27,09,24,26,21,,,,,,,06.8,03.7,05.7*03
$GPGSV,3,1,11,27,88,224,37,09,76,218,37,15,54,047,38,18,46,313,41*7B
$GPGSV,3,2,11,24,42,249,37,21,39,262,31,26,37,288,36,05,20,132,00*7E
$GPGSV,3,3,11,22,12,311,29,28,10,041,30,12,09,169,34,,,,*4C
$GPRMC,063851,A,3616.0903,N,13756.3933,E,010.2,299.8,180310,,,A*7F
$GPVTG,299.8,T,,M,010.2,N,019.0,K,A*0C
$GPGGA,063912,3616.0903,N,13756.3810,E,1,06,03.6,00583.0,M,037.4,M,00,0000*44
$GPGSA,A,3,24,15,27,09,26,21,,,,,,,06.7,03.6,05.6*0C
$GPGSV,3,1,11,27,88,231,37,09,76,219,37,15,54,048,39,24,42,248,38*7A
$GPGSV,3,2,11,21,39,261,28,26,37,288,35,18,46,313,44,05,20,132,26*73
$GPGSV,3,3,11,22,12,311,28,28,10,041,30,12,10,169,31,,,,*40
$GPRMC,063912,A,3616.0903,N,13756.3810,E,002.5,297.8,180310,,,A*73
$GPVTG,297.8,T,,M,002.5,N,004.7,K,A*0D
$GPGGA,063927,3616.1165,N,13756.3312,E,1,06,03.6,00583.7,M,037.4,M,00,0000*45
$GPGSA,A,3,24,15,27,09,26,21,,,,,,,06.6,03.6,05.5*0E
$GPGSV,3,1,11,27,88,231,38,09,76,219,37,15,54,048,40,24,42,248,37*74
$GPGSV,3,2,11,21,39,261,36,26,37,288,34,18,46,313,43,05,20,132,24*78
$GPGSV,3,3,11,22,12,311,23,28,10,041,31,12,10,169,32,,,,*49
$GPRMC,063927,A,3616.1165,N,13756.3312,E,017.9,302.8,180310,,,A*70
$GPVTG,302.8,T,,M,017.9,N,033.3,K,A*08
$GPGGA,063942,3616.1665,N,13756.2390,E,1,07,02.4,00587.8,M,037.4,M,00,0000*43
$GPGSA,A,3,24,15,27,09,26,21,18,,,,,,05.1,02.4,04.5*01
$GPGSV,3,1,11,27,89,239,39,09,76,219,36,15,54,048,38,18,46,313,41*77
$GPGSV,3,2,11,24,42,248,37,21,39,261,39,26,37,288,35,05,20,132,00*77
$GPGSV,3,3,11,22,12,311,23,28,10,041,31,12,10,169,31,,,,*4A
$GPRMC,063942,A,3616.1665,N,13756.2390,E,024.2,302.7,180310,,,A*7B
$GPVTG,302.7,T,,M,024.2,N,044.8,K,A*07
$GPGGA,063957,3616.2281,N,13756.1263,E,1,08,01.3,00585.1,M,037.4,M,00,0000*44
$GPGSA,A,3,24,15,27,09,26,21,18,12,,,,,02.3,01.3,01.8*0B
$GPGSV,3,1,11,27,89,239,39,09,76,219,39,15,54,048,30,18,46,313,41*70
$GPGSV,3,2,11,24,42,248,37,21,39,261,40,26,37,288,41,05,20,132,35*7C
$GPGSV,3,3,11,22,12,311,34,28,10,041,31,12,10,169,32,,,,*4F
$GPRMC,063957,A,3616.2281,N,13756.1263,E,026.7,310.5,180310,,,A*7A
$GPVTG,310.5,T,,M,026.7,N,049.4,K,A*00
$GPGGA,064006,3616.2760,N,13756.0661,E,1,08,01.3,00584.8,M,037.4,M,00,0000*4B
$GPGSA,A,3,24,15,27,09,26,21,18,12,,,,,02.3,01.3,01.8*0B
$GPGSV,3,1,11,27,89,249,39,09,76,220,40,15,54,048,36,18,46,313,42*76
$GPGSV,3,2,11,24,42,248,38,21,39,261,36,26,37,289,38,05,20,132,36*7E
$GPGSV,3,3,11,22,12,311,30,12,10,168,32,28,10,041,29,,,,*43
$GPRMC,064006,A,3616.2760,N,13756.0661,E,027.3,311.9,180310,,,A*75
$GPVTG,311.9,T,,M,027.3,N,050.7,K,A*03
$GPGGA,064021,3616.3318,N,13755.9382,E,1,08,01.3,00584.8,M,037.4,M,00,0000*46
$GPGSA,A,3,21,27,18,26,15,24,09,12,,,,,02.3,01.3,01.8*0B
$GPGSV,3,1,11,27,89,249,39,09,76,220,36,15,54,048,37,18,46,313,38*7B
$GPGSV,3,2,11,24,42,248,37,21,39,261,40,26,37,289,39,05,20,132,31*76
$GPGSV,3,3,11,22,12,311,24,12,10,168,29,28,10,041,30,,,,*44
$GPRMC,064021,A,3616.3318,N,13755.9382,E,029.7,289.5,180310,,,A*7E
$GPVTG,289.5,T,,M,029.7,N,055.0,K,A*07
$GPGGA,064042,3616.4173,N,13755.7608,E,1,08,01.3,00580.7,M,037.4,M,00,0000*49
$GPGSA,A,3,24,21,18,26,27,09,12,15,,,,,02.3,01.3,01.8*0B
$GPGSV,3,1,11,27,89,273,39,09,77,220,36,15,54,049,33,18,47,313,41*79
$GPGSV,3,2,11,24,42,248,37,21,38,261,32,26,38,289,39,12,10,168,31*77
$GPGSV,3,3,11,05,19,132,35,22,13,312,25,28,10,041,33,,,,*49
$GPRMC,064042,A,3616.4173,N,13755.7608,E,026.9,314.0,180310,,,A*7B
$GPVTG,314.0,T,,M,026.9,N,049.8,K,A*03
$GPGGA,064054,3616.4932,N,13755.6873,E,1,08,01.3,00579.6,M,037.4,M,00,0000*47
$GPGSA,A,3,18,27,24,26,15,21,12,09,,,,,02.3,01.3,01.8*0B
$GPGSV,3,1,11,27,89,273,38,09,77,220,33,15,54,049,37,18,47,313,41*79
$GPGSV,3,2,11,24,42,248,39,21,38,261,36,26,38,289,39,05,19,132,00*7F
$GPGSV,3,3,11,22,13,312,22,12,10,168,35,28,10,041,35,,,,*48
$GPRMC,064054,A,3616.4932,N,13755.6873,E,030.1,322.4,180310,,,A*7C
$GPVTG,322.4,T,,M,030.1,N,055.8,K,A*00
$GPGGA,064109,3616.5861,N,13755.5841,E,1,08,01.3,00577.7,M,037.4,M,00,0000*45
$GPGSA,A,3,18,27,24,09,26,21,15,12,,,,,02.3,01.3,01.9*0A
$GPGSV,3,1,11,27,89,273,39,09,77,220,38,15,54,049,35,18,47,313,40*70
$GPGSV,3,2,11,24,42,248,39,21,38,261,37,26,38,289,38,05,19,132,34*78
$GPGSV,3,3,11,22,13,312,26,12,10,168,31,28,10,041,28,,,,*44
$GPRMC,064109,A,3616.5861,N,13755.5841,E,029.6,315.8,180310,,,A*76
$GPVTG,315.8,T,,M,029.6,N,054.9,K,A*07
$GPGGA,064124,3616.6680,N,13755.4806,E,1,08,01.3,00579.6,M,037.4,M,00,0000*45
$GPGSA,A,3,18,26,27,09,24,21,15,12,,,,,02.3,01.3,01.9*0A
$GPGSV,3,1,11,27,89,273,38,09,77,220,38,15,54,049,35,18,47,313,39*7F
$GPGSV,3,2,11,24,42,248,38,21,38,261,36,26,38,289,38,05,19,132,34*78
$GPGSV,3,3,11,22,13,312,00,12,10,168,32,28,10,041,33,,,,*49
$GPRMC,064124,A,3616.6680,N,13755.4806,E,026.3,313.4,180310,,,A*79
$GPVTG,313.4,T,,M,026.3,N,048.8,K,A*0B
$GPGGA,064139,3616.7338,N,13755.3751,E,1,08,01.3,00584.3,M,037.4,M,00,0000*43
$GPGSA,A,3,18,27,24,12,15,09,26,21,,,,,02.3,01.3,01.9*0A
$GPGSV,3,1,11,27,89,273,38,09,77,220,34,15,54,049,35,18,47,313,39*73
$GPGSV,3,2,11,24,42,248,37,21,38,261,28,26,38,289,32,05,19,132,33*75
$GPGSV,3,3,11,22,13,312,32,12,10,168,36,28,10,041,00,,,,*4C
$GPRMC,064139,A,3616.7338,N,13755.3751,E,024.7,300.0,180310,,,A*78
$GPVTG,300.0,T,,M,024.7,N,045.7,K,A*09
$GPGGA,064154,3616.7704,N,13755.2839,E,1,08,01.3,00589.0,M,037.4,M,00,0000*4D
$GPGSA,A,3,24,27,18,15,26,12,09,21,,,,,02.3,01.3,01.9*0A
$GPGSV,3,1,11,27,89,273,39,09,77,220,35,15,54,049,36,18,47,313,39*70
$GPGSV,3,2,11,24,42,248,39,21,38,261,35,26,38,289,37,05,19,132,34*75
$GPGSV,3,3,11,22,13,312,27,12,10,168,34,28,10,041,23,,,,*4B
$GPRMC,064154,A,3616.7704,N,13755.2839,E,013.9,293.3,180310,,,A*7A
$GPVTG,293.3,T,,M,013.9,N,025.8,K,A*02
$GPGGA,064209,3616.7818,N,13755.2492,E,1,08,01.3,00598.0,M,037.4,M,00,0000*49
$GPGSA,A,3,24,15,18,26,27,21,12,09,,,,,02.3,01.3,01.9*0A
$GPGSV,3,1,11,27,89,273,36,09,77,220,27,15,54,049,37,18,47,313,38*7C
$GPGSV,3,2,11,24,42,248,38,21,38,261,36,26,38,289,37,05,19,132,32*71
$GPGSV,3,3,11,22,13,312,30,12,10,168,30,28,10,041,26,,,,*4C
$GPRMC,064209,A,3616.7818,N,13755.2492,E,009.0,294.1,180310,,,A*79
$GPVTG,294.1,T,,M,009.0,N,016.8,K,A*05
$GPGGA,064224,3616.8405,N,13755.2509,E,1,06,01.6,00594.3,M,037.4,M,00,0000*4E
$GPGSA,A,3,15,27,24,21,26,12,,,,,,,03.1,01.6,02.6*00
$GPGSV,3,1,11,27,89,273,39,09,77,220,00,15,54,049,40,18,47,313,00*7D
$GPGSV,3,2,11,24,42,248,38,21,38,261,38,26,38,289,34,05,19,132,28*77
$GPGSV,3,3,11,22,13,312,00,12,10,168,20,28,10,041,25,,,,*4D
$GPRMC,064224,A,3616.8405,N,13755.2509,E,021.5,018.0,180310,,,A*72
$GPVTG,018.0,T,,M,021.5,N,039.9,K,A*01
$GPGGA,064239,3616.9465,N,13755.2808,E,1,07,01.4,00594.4,M,037.4,M,00,0000*4D
$GPGSA,A,3,15,24,27,26,18,12,09,,,,,,02.4,01.4,01.9*09
$GPGSV,3,1,11,27,89,273,36,09,77,220,30,15,54,049,37,18,47,313,33*71
$GPGSV,3,2,11,24,42,248,36,21,38,261,00,26,38,289,36,05,19,132,30*79
$GPGSV,3,3,11,22,13,312,00,12,10,168,33,28,10,041,24,,,,*4E
$GPRMC,064239,A,3616.9465,N,13755.2808,E,024.1,008.7,180310,,,A*72
$GPVTG,008.7,T,,M,024.1,N,044.7,K,A*02
$GPGGA,064257,3617.0619,N,13755.3113,E,1,08,01.3,00564.1,M,037.4,M,00,0000*44
$GPGSA,A,3,15,27,18,24,12,26,09,21,,,,,02.3,01.3,01.9*0A
$GPGSV,3,1,11,27,88,356,37,09,78,222,29,15,53,050,43,18,48,313,40*75
$GPGSV,3,2,11,24,41,246,29,26,38,290,34,21,38,259,30,05,19,133,32*7B
$GPGSV,3,3,11,22,13,312,31,12,11,168,30,28,09,040,31,,,,*43
$GPRMC,064257,A,3617.0619,N,13755.3113,E,022.2,004.7,180310,,,A*70
$GPVTG,004.7,T,,M,022.2,N,041.1,K,A*08
$GPGGA,064305,3617.1117,N,13755.3124,E,1,08,01.3,00563.0,M,037.4,M,00,0000*48
$GPGSA,A,3,15,18,21,27,26,12,09,24,,,,,02.3,01.3,01.9*0A
$GPGSV,3,1,11,27,88,356,36,09,78,222,28,15,53,050,42,18,48,313,39*7A
$GPGSV,3,2,11,24,41,246,32,26,38,290,37,21,38,259,37,05,19,133,00*74
$GPGSV,3,3,11,22,13,312,28,12,11,168,31,28,09,040,31,,,,*4A
$GPRMC,064305,A,3617.1117,N,13755.3124,E,023.9,000.4,180310,,,A*77
$GPVTG,000.4,T,,M,023.9,N,044.4,K,A*05
$GPGGA,064320,3617.2121,N,13755.3095,E,1,07,01.4,00561.1,M,037.4,M,00,0000*49
$GPGSA,A,3,15,18,21,27,26,12,09,,,,,,02.4,01.4,01.9*0C
$GPGSV,3,1,11,27,88,356,37,09,78,222,26,15,53,050,38,18,48,313,36*77
$GPGSV,3,2,11,24,41,246,00,26,38,290,35,21,38,259,37,05,19,133,32*76
$GPGSV,3,3,11,22,13,312,23,12,11,168,29,28,09,040,27,,,,*4F
$GPRMC,064320,A,3617.2121,N,13755.3095,E,026.1,355.1,180310,,,A*76
$GPVTG,355.1,T,,M,026.1,N,048.5,K,A*03
$GPGGA,064335,3617.3268,N,13755.2899,E,1,07,01.5,00550.1,M,037.4,M,00,0000*44
$GPGSA,A,3,18,27,15,24,26,12,21,,,,,,02.9,01.5,02.5*00
$GPGSV,3,1,11,27,88,356,36,09,78,222,00,15,53,050,36,18,48,313,39*73
$GPGSV,3,2,11,24,41,246,35,26,38,290,35,21,38,259,32,05,19,133,25*73
$GPGSV,3,3,11,22,13,312,34,12,11,168,32,28,09,040,26,,,,*42
$GPRMC,064335,A,3617.3268,N,13755.2899,E,027.9,352.3,180310,,,A*74
$GPVTG,352.3,T,,M,027.9,N,051.7,K,A*05
$GPGGA,064350,3617.4458,N,13755.2703,E,1,08,01.3,00538.8,M,037.4,M,00,0000*47
$GPGSA,A,3,18,15,27,24,26,12,21,09,,,,,02.4,01.3,01.9*0D
$GPGSV,3,1,11,27,88,356,35,09,78,222,21,15,53,050,37,18,48,313,37*7C
$GPGSV,3,2,11,24,41,246,34,26,38,290,33,21,38,259,33,05,19,133,25*75
$GPGSV,3,3,11,22,13,312,33,12,11,168,33,28,09,040,24,,,,*46
$GPRMC,064350,A,3617.4458,N,13755.2703,E,028.8,352.7,180310,,,A*73
$GPVTG,352.7,T,,M,028.8,N,053.5,K,A*0F
$GPGGA,064405,3617.5664,N,13755.2471,E,1,07,01.5,00528.6,M,037.4,M,00,0000*4C
$GPGSA,A,3,18,15,27,26,21,24,12,,,,,,02.9,01.5,02.5*00
$GPGSV,3,1,11,27,88,356,36,09,78,222,00,15,53,050,37,18,48,313,39*72
$GPGSV,3,2,11,24,41,246,33,26,38,290,35,21,38,259,34,05,19,133,00*74
$GPGSV,3,3,11,22,13,312,35,12,11,168,33,28,09,040,00,,,,*46
$GPRMC,064405,A,3617.5664,N,13755.2471,E,028.8,352.9,180310,,,A*70
$GPVTG,352.9,T,,M,028.8,N,053.4,K,A*00
$GPGGA,064420,3617.6652,N,13755.2260,E,1,07,01.5,00529.4,M,037.4,M,00,0000*48
$GPGSA,A,3,15,27,18,21,24,26,12,,,,,,02.9,01.5,02.5*00
$GPGSV,3,1,11,27,88,356,36,09,78,222,00,15,53,050,38,18,48,313,35*71
$GPGSV,3,2,11,24,41,246,32,26,38,290,34,21,38,259,33,05,19,133,24*75
$GPGSV,3,3,11,22,13,312,32,12,11,168,28,28,09,040,29,,,,*40
$GPRMC,064420,A,3617.6652,N,13755.2260,E,021.0,353.3,180310,,,A*7D
$GPVTG,353.3,T,,M,021.0,N,038.9,K,A*0A
$GPGGA,064435,3617.7629,N,13755.2063,E,1,08,01.3,00528.5,M,037.4,M,00,0000*49
$GPGSA,A,3,18,15,27,21,26,24,12,09,,,,,02.4,01.3,01.9*0D
$GPGSV,3,1,11,27,88,356,36,09,78,222,27,15,53,050,37,18,48,313,39*77
$GPGSV,3,2,11,24,41,246,31,26,38,290,35,21,38,259,36,05,19,133,00*74
$GPGSV,3,3,11,22,13,312,31,12,11,168,30,28,09,040,25,,,,*46
$GPRMC,064435,A,3617.7629,N,13755.2063,E,023.3,351.7,180310,,,A*72
$GPVTG,351.7,T,,M,023.3,N,043.3,K,A*0B
$GPGGA,064450,3617.8205,N,13755.1908,E,1,07,01.5,00534.6,M,037.4,M,00,0000*4F
$GPGSA,A,3,15,21,18,27,26,12,24,,,,,,03.0,01.5,02.5*08
$GPGSV,3,1,11,27,88,356,36,09,78,222,00,15,53,050,39,18,48,313,38*7D
$GPGSV,3,2,11,24,41,246,29,26,38,290,36,21,38,259,39,05,19,133,23*70
$GPGSV,3,3,11,22,13,312,33,12,11,168,32,28,09,040,25,,,,*46
$GPRMC,064450,A,3617.8205,N,13755.1908,E,013.2,339.2,180310,,,A*7A
$GPVTG,339.2,T,,M,013.2,N,024.5,K,A*05
$GPGGA,064505,3617.8268,N,13755.1872,E,1,08,01.3,00552.0,M,037.4,M,00,0000*46
$GPGSA,A,3,18,21,27,15,26,24,09,12,,,,,02.4,01.3,01.9*0D
$GPGSV,3,1,11,27,88,356,37,09,78,222,26,15,53,050,38,18,48,313,40*76
$GPGSV,3,2,11,24,41,246,31,26,38,290,35,21,38,259,39,05,19,133,28*71
$GPGSV,3,3,11,22,13,312,32,12,11,168,28,28,09,040,00,,,,*4B
$GPRMC,064505,A,3617.8268,N,13755.1872,E,000.4,297.7,180310,,,A*78
$GPVTG,297.7,T,,M,000.4,N,000.7,K,A*05
$GPGGA,064520,3617.8455,N,13755.1914,E,1,08,01.3,00555.2,M,037.4,M,00,0000*4D
$GPGSA,A,3,18,21,15,27,24,12,26,09,,,,,02.4,01.3,02.0*07
$GPGSV,3,1,11,27,88,356,34,09,78,222,28,15,53,050,35,18,48,313,38*79
$GPGSV,3,2,11,24,41,246,34,26,38,290,32,21,38,259,35,05,19,133,00*75
$GPGSV,3,3,11,22,13,312,30,12,11,168,34,28,09,040,00,,,,*44
$GPRMC,064520,A,3617.8455,N,13755.1914,E,011.4,345.5,180310,,,A*7A
$GPVTG,345.5,T,,M,011.4,N,021.2,K,A*0F
$GPGGA,064535,3617.9368,N,13755.1746,E,1,08,01.3,00533.4,M,037.4,M,00,0000*4E
$GPGSA,A,3,18,15,26,21,12,27,09,24,,,,,02.4,01.3,02.0*07
$GPGSV,3,1,11,27,88,356,35,09,78,222,29,15,53,050,36,18,48,313,37*75
$GPGSV,3,2,11,24,41,246,32,26,38,290,30,21,38,259,35,05,19,133,00*71
$GPGSV,3,3,11,22,13,312,00,12,11,168,33,28,09,040,00,,,,*40
$GPRMC,064535,A,3617.9368,N,13755.1746,E,024.4,352.2,180310,,,A*78
$GPVTG,352.2,T,,M,024.4,N,045.1,K,A*09
$GPGGA,064550,3618.0333,N,13755.1593,E,1,07,01.4,00528.2,M,037.4,M,00,0000*4B
$GPGSA,A,3,15,18,21,27,26,12,09,,,,,,02.5,01.4,02.0*07
$GPGSV,3,1,11,27,88,356,38,09,78,222,27,15,53,050,39,18,48,313,39*77
$GPGSV,3,2,11,24,41,246,00,26,38,290,37,21,38,259,38,05,19,133,27*7F
$GPGSV,3,3,11,22,13,312,00,12,11,168,33,28,09,040,28,,,,*4A
$GPRMC,064550,A,3618.0333,N,13755.1593,E,019.8,359.3,180310,,,A*71
$GPVTG,359.3,T,,M,019.8,N,036.7,K,A*03
$GPGGA,064605,3618.0417,N,13755.1553,E,1,07,01.5,00529.4,M,037.4,M,00,0000*43
$GPGSA,A,3,18,15,27,26,21,12,24,,,,,,03.0,01.5,02.6*0B
$GPGSV,3,1,11,27,87,011,38,09,79,226,00,15,52,052,38,18,49,312,41*75
$GPGSV,3,2,11,24,40,245,29,26,39,292,37,21,38,257,37,05,17,134,26*7C
$GPGSV,3,3,11,22,15,312,30,12,12,167,33,28,09,039,00,,,,*47
$GPRMC,064605,A,3618.0417,N,13755.1553,E,000.1,075.5,180310,,,A*75
$GPVTG,075.5,T,,M,000.1,N,000.2,K,A*09
$GPGGA,064620,3618.0414,N,13755.1561,E,1,07,01.5,00525.9,M,037.4,M,00,0000*47
$GPGSA,A,3,18,15,27,26,21,12,24,,,,,,03.0,01.5,02.6*0B
$GPGSV,3,1,11,27,87,011,38,09,79,226,00,15,52,052,39,18,49,312,41*74
$GPGSV,3,2,11,24,40,245,29,26,39,292,38,21,38,257,38,05,17,134,25*7F
$GPGSV,3,3,11,22,15,312,29,12,12,167,31,28,09,039,00,,,,*4D
$GPRMC,064620,A,3618.0414,N,13755.1561,E,000.7,025.2,180310,,,A*74
$GPVTG,025.2,T,,M,000.7,N,001.3,K,A*0D
$GPGGA,064635,3618.0408,N,13755.1574,E,1,07,01.5,00530.9,M,037.4,M,00,0000*4E
$GPGSA,A,3,18,21,15,26,27,12,24,,,,,,03.0,01.5,02.6*0B
$GPGSV,3,1,11,27,87,011,38,09,79,226,00,15,52,052,39,18,49,312,41*74
$GPGSV,3,2,11,24,40,245,32,26,39,292,38,21,38,257,39,05,17,134,26*77
$GPGSV,3,3,11,22,15,312,29,12,12,167,33,28,09,039,20,,,,*4D
$GPRMC,064635,A,3618.0408,N,13755.1574,E,000.4,147.8,180310,,,A*75
$GPVTG,147.8,T,,M,000.4,N,000.7,K,A*04
$GPGGA,064650,3618.0406,N,13755.1570,E,1,07,01.5,00533.7,M,037.4,M,00,0000*4A
$GPGSA,A,3,18,15,27,26,21,12,24,,,,,,03.0,01.5,02.6*0B
$GPGSV,3,1,11,27,87,011,38,09,79,226,00,15,52,052,38,18,49,312,40*74
$GPGSV,3,2,11,24,40,245,32,26,39,292,37,21,38,257,37,05,17,134,27*77
$GPGSV,3,3,11,22,15,312,28,12,12,167,33,28,09,039,00,,,,*4E
$GPRMC,064650,A,3618.0406,N,13755.1570,E,000.1,070.2,180310,,,A*76
$GPVTG,070.2,T,,M,000.1,N,000.2,K,A*0B
$GPGGA,064705,3618.0477,N,13755.1655,E,1,08,01.3,00537.0,M,037.4,M,00,0000*43
$GPGSA,A,3,15,27,26,09,12,18,24,21,,,,,02.4,01.3,02.0*07
$GPGSV,3,1,11,27,87,011,38,09,79,226,32,15,52,052,42,18,49,312,35*7A
$GPGSV,3,2,11,24,40,245,27,26,39,292,34,21,38,257,27,05,17,134,34*73
$GPGSV,3,3,11,22,15,312,29,12,12,167,34,28,09,039,31,,,,*4A
$GPRMC,064705,A,3618.0477,N,13755.1655,E,003.3,043.5,180310,,,A*73
$GPVTG,043.5,T,,M,003.3,N,006.2,K,A*0B
$GPGGA,064720,3618.0445,N,13755.2540,E,1,07,01.4,00541.7,M,037.4,M,00,0000*4F
$GPGSA,A,3,15,27,18,21,12,09,26,,,,,,02.5,01.4,02.0*07
$GPGSV,3,1,11,27,87,011,38,09,79,226,28,15,52,052,41,18,49,312,38*7F
$GPGSV,3,2,11,24,40,245,00,26,39,292,29,21,38,257,32,05,17,134,25*7E
$GPGSV,3,3,11,22,15,312,28,12,12,167,33,28,09,039,29,,,,*45
$GPRMC,064720,A,3618.0445,N,13755.2540,E,018.3,090.0,180310,,,A*70
$GPVTG,090.0,T,,M,018.3,N,034.0,K,A*09
$GPGGA,064735,3618.0411,N,13755.2954,E,1,08,01.3,00555.7,M,037.4,M,00,0000*4E
$GPGSA,A,3,15,27,18,12,21,24,09,26,,,,,02.4,01.3,02.0*07
$GPGSV,3,1,11,27,87,011,38,09,79,226,27,15,52,052,41,18,49,312,37*7F
$GPGSV,3,2,11,24,40,245,27,26,39,292,26,21,38,257,32,05,17,134,00*73
$GPGSV,3,3,11,22,15,312,30,12,12,167,33,28,09,039,00,,,,*47
$GPRMC,064735,A,3618.0411,N,13755.2954,E,013.2,089.8,180310,,,A*76
$GPVTG,089.8,T,,M,013.2,N,024.5,K,A*07
$GPGGA,064750,3618.0476,N,13755.3759,E,1,07,01.5,00556.4,M,037.4,M,00,0000*47
$GPGSA,A,3,15,27,18,21,09,12,26,,,,,,02.5,01.5,02.1*07
$GPGSV,3,1,11,27,87,011,38,09,79,226,34,15,52,052,42,18,49,312,38*71
$GPGSV,3,2,11,24,40,245,00,26,39,292,26,21,38,257,33,05,17,134,32*76
$GPGSV,3,3,11,22,15,312,00,12,12,167,31,28,09,039,00,,,,*46
$GPRMC,064750,A,3618.0476,N,13755.3759,E,010.1,089.6,180310,,,A*78
$GPVTG,089.6,T,,M,010.1,N,018.8,K,A*0B
$GPGGA,064805,3618.0459,N,13755.4075,E,1,08,01.3,00558.5,M,037.4,M,00,0000*4D
$GPGSA,A,3,15,27,18,09,12,21,24,26,,,,,02.5,01.3,02.0*06
$GPGSV,3,1,11,27,87,011,40,09,79,226,34,15,52,052,41,18,49,312,38*7D
$GPGSV,3,2,11,24,40,245,28,26,39,292,30,21,38,257,32,05,17,134,29*70
$GPGSV,3,3,11,22,15,312,27,12,12,167,32,28,09,039,28,,,,*4A
$GPRMC,064805,A,3618.0459,N,13755.4075,E,003.0,095.2,180310,,,A*7E
$GPVTG,095.2,T,,M,003.0,N,005.6,K,A*03
$GPGGA,064820,3618.0262,N,13755.4411,E,1,07,01.5,00557.8,M,037.4,M,00,0000*49
$GPGSA,A,3,27,09,21,26,15,24,12,,,,,,02.6,01.5,02.1*0B
$GPGSV,3,1,11,27,87,011,40,09,79,226,36,15,52,052,32,18,49,312,00*70
$GPGSV,3,2,11,24,40,245,27,26,39,292,34,21,38,257,38,05,17,134,24*7C
$GPGSV,3,3,11,22,15,312,28,12,12,167,32,28,09,039,00,,,,*4F
$GPRMC,064820,A,3618.0262,N,13755.4411,E,008.6,134.2,180310,,,A*76
$GPVTG,134.2,T,,M,008.6,N,016.0,K,A*00
$GPGGA,064843,3617.9410,N,13755.4323,E,1,04,13.5,00562.8,M,037.4,M,00,0000*49
$GPGSA,A,3,24,27,09,15,,,,,,,,,13.5,13.5,00.9*05
$GPGSV,3,1,11,27,86,015,42,09,81,230,39,15,51,054,33,18,50,312,28*7E
$GPGSV,3,2,11,26,40,293,33,24,40,243,33,21,37,256,31,12,13,167,21*71
$GPGSV,3,3,11,05,16,134,33,22,16,312,23,28,08,038,00,,,,*42
$GPRMC,064843,A,3617.9410,N,13755.4323,E,010.4,202.8,180310,,,A*77
$GPVTG,202.8,T,,M,010.4,N,019.2,K,A*0A
$GPGGA,064853,3617.8889,N,13755.4702,E,1,08,01.3,00557.5,M,037.4,M,00,0000*40
$GPGSA,A,3,21,24,27,09,15,26,18,12,,,,,02.5,01.3,02.1*07
$GPGSV,3,1,11,27,86,015,42,09,81,230,33,15,51,054,43,18,50,312,33*79
$GPGSV,3,2,11,26,40,293,32,24,40,243,33,21,37,256,32,12,13,167,34*77
$GPGSV,3,3,11,05,16,134,28,22,16,312,34,28,08,038,33,,,,*4E
$GPRMC,064853,A,3617.8889,N,13755.4702,E,022.4,101.4,180310,,,A*71
$GPVTG,101.4,T,,M,022.4,N,041.4,K,A*0C
$GPGGA,064913,3618.0301,N,13755.4624,E,1,08,01.3,00549.9,M,037.4,M,00,0000*4F
$GPGSA,A,3,18,26,24,15,21,12,27,09,,,,,02.5,01.3,02.1*07
$GPGSV,3,1,11,27,85,016,31,09,81,231,32,15,51,054,38,18,50,312,43*76
$GPGSV,3,2,11,26,40,293,40,24,39,243,43,21,37,256,34,12,13,167,35*7C
$GPGSV,3,3,11,05,16,134,33,22,16,312,34,28,08,038,33,,,,*44
$GPRMC,064913,A,3618.0301,N,13755.4624,E,037.5,342.2,180310,,,A*7B
$GPVTG,342.2,T,,M,037.5,N,069.5,K,A*01
$GPGGA,064928,3618.1926,N,13755.3912,E,1,08,01.3,00550.2,M,037.4,M,00,0000*47
$GPGSA,A,3,18,26,24,15,21,12,27,09,,,,,02.5,01.3,02.1*07
$GPGSV,3,1,11,27,85,016,31,09,81,231,33,15,51,054,38,18,50,312,43*77
$GPGSV,3,2,11,26,40,293,43,24,39,243,42,21,37,255,35,05,16,134,33*7F
$GPGSV,3,3,11,22,16,312,32,12,13,167,35,28,08,038,32,,,,*40
$GPRMC,064928,A,3618.1926,N,13755.3912,E,043.4,339.9,180310,,,A*75
$GPVTG,339.9,T,,M,043.4,N,080.4,K,A*02
$GPGGA,064943,3618.3686,N,13755.3181,E,1,08,01.3,00551.4,M,037.4,M,00,0000*48
$GPGSA,A,3,18,26,24,15,21,12,27,09,,,,,02.5,01.3,02.1*07
$GPGSV,3,1,11,27,85,016,31,09,81,232,31,15,51,054,37,18,50,312,42*78
$GPGSV,3,2,11,26,40,293,39,24,39,243,42,21,37,255,34,05,16,134,33*73
$GPGSV,3,3,11,22,16,312,31,12,13,167,36,28,08,038,34,,,,*46
$GPRMC,064943,A,3618.3686,N,13755.3181,E,044.7,343.3,180310,,,A*7E
$GPVTG,343.3,T,,M,044.7,N,082.8,K,A*0F
$GPGGA,064952,3618.4771,N,13755.2824,E,1,10,00.9,00550.7,M,037.4,M,00,0000*41
$GPGSA,A,3,18,26,24,15,21,12,27,09,22,28,,,01.4,00.9,01.1*07
$GPGSV,3,1,11,27,85,016,32,09,81,232,32,15,51,054,36,18,51,312,43*79
$GPGSV,3,2,11,26,40,294,38,24,39,243,40,21,37,255,35,22,16,312,28*7F
$GPGSV,3,3,11,05,16,134,26,12,14,167,36,28,08,038,34,,,,*44
$GPRMC,064952,A,3618.4771,N,13755.2824,E,044.8,346.4,180310,,,A*7A
$GPVTG,346.4,T,,M,044.8,N,083.0,K,A*0B
$GPGGA,065007,3618.6606,N,13755.2376,E,1,09,01.1,00551.3,M,037.4,M,00,0000*42
$GPGSA,A,3,18,21,15,12,09,26,27,22,24,,,,01.8,01.1,01.4*0D
$GPGSV,3,1,11,27,85,016,32,09,81,232,33,15,51,054,35,18,51,312,41*79
$GPGSV,3,2,11,26,40,294,33,24,39,243,30,21,37,255,37,22,16,312,33*7B
$GPGSV,3,3,11,05,16,134,00,12,14,167,33,28,08,038,00,,,,*42
$GPRMC,065007,A,3618.6606,N,13755.2376,E,044.4,350.1,180310,,,A*73
$GPVTG,350.1,T,,M,044.4,N,082.3,K,A*07
$GPGGA,065022,3618.8460,N,13755.2135,E,1,10,00.9,00550.9,M,037.4,M,00,0000*46
$GPGSA,A,3,15,18,26,27,21,22,12,24,28,09,,,01.4,00.9,01.1*07
$GPGSV,3,1,11,27,85,016,37,09,81,232,28,15,51,054,39,18,51,312,37*7B
$GPGSV,3,2,11,26,40,294,37,24,39,243,34,21,37,255,37,22,16,312,35*7D
$GPGSV,3,3,11,05,16,134,26,12,14,167,33,28,08,038,30,,,,*45
$GPRMC,065022,A,3618.8460,N,13755.2135,E,045.1,358.4,180310,,,A*74
$GPVTG,358.4,T,,M,045.1,N,083.5,K,A*09
$GPGGA,065037,3619.0328,N,13755.2252,E,1,10,00.9,00549.4,M,037.4,M,00,0000*47
$GPGSA,A,3,15,26,27,24,18,21,22,09,12,28,,,01.4,00.9,01.1*07
$GPGSV,3,1,11,27,85,016,37,09,81,232,33,15,51,054,40,18,51,312,36*7E
$GPGSV,3,2,11,26,40,294,38,24,39,243,37,21,37,255,33,22,16,312,31*71
$GPGSV,3,3,11,05,16,134,23,12,14,167,25,28,08,038,27,,,,*41
$GPRMC,065037,A,3619.0328,N,13755.2252,E,044.5,007.8,180310,,,A*70
$GPVTG,007.8,T,,M,044.5,N,082.5,K,A*08
$GPGGA,065052,3619.2096,N,13755.2730,E,1,09,01.1,00548.3,M,037.4,M,00,0000*46
$GPGSA,A,3,15,24,27,26,18,21,12,09,22,,,,01.8,01.1,01.4*0D
$GPGSV,3,1,11,27,85,016,38,09,81,232,28,15,51,054,40,18,51,312,36*7B
$GPGSV,3,2,11,26,40,294,37,24,39,243,39,21,37,255,35,22,16,312,24*72
$GPGSV,3,3,11,05,16,134,25,12,14,167,29,28,08,038,00,,,,*4E
$GPRMC,065052,A,3619.2096,N,13755.2730,E,042.2,016.9,180310,,,A*76
$GPVTG,016.9,T,,M,042.2,N,078.2,K,A*0A
$GPGGA,065107,3619.3806,N,13755.3489,E,1,08,01.1,00552.0,M,037.4,M,00,0000*4E
$GPGSA,A,3,18,21,27,15,24,26,22,12,,,,,01.9,01.1,01.6*07
$GPGSV,3,1,11,27,85,016,38,09,81,232,00,15,51,054,35,18,51,312,39*7C
$GPGSV,3,2,11,26,40,294,32,24,39,243,36,21,37,255,37,22,16,312,32*7D
$GPGSV,3,3,11,05,16,134,29,12,14,167,25,28,08,038,00,,,,*4E
$GPRMC,065107,A,3619.3806,N,13755.3489,E,044.2,021.5,180310,,,A*79
$GPVTG,021.5,T,,M,044.2,N,082.0,K,A*03
$GPGGA,065122,3619.5482,N,13755.4460,E,1,07,01.9,00552.4,M,037.4,M,00,0000*4C
$GPGSA,A,3,21,27,18,26,15,24,09,,,,,,03.8,01.9,03.3*01
$GPGSV,3,1,11,27,85,016,38,09,81,232,25,15,51,054,30,18,51,312,38*7F
$GPGSV,3,2,11,26,40,294,37,24,39,243,27,21,37,255,38,22,16,312,00*76
$GPGSV,3,3,11,05,16,134,35,12,14,167,00,28,08,038,00,,,,*44
$GPRMC,065122,A,3619.5482,N,13755.4460,E,044.4,028.4,180310,,,A*76
$GPVTG,028.4,T,,M,044.4,N,082.3,K,A*0E
$GPGGA,065143,3619.7128,N,13755.6650,E,1,06,02.4,00566.8,M,037.4,M,00,0000*4B
$GPGSA,A,3,15,27,24,21,09,26,,,,,,,04.2,02.4,03.4*0C
$GPGSV,3,1,11,27,84,018,38,09,82,236,33,18,51,312,00,15,51,055,40*7D
$GPGSV,3,2,11,26,41,294,36,24,39,242,31,21,36,254,30,22,17,312,00*79
$GPGSV,3,3,11,12,14,166,00,28,07,037,00,05,15,135,00,,,,*41
$GPRMC,065143,A,3619.7128,N,13755.6650,E,039.8,065.6,180310,,,A*78
$GPVTG,065.6,T,,M,039.8,N,073.8,K,A*06
$GPGGA,065153,3619.7469,N,13755.7978,E,1,04,15.1,00550.7,M,037.4,M,00,0000*45
$GPGSA,A,3,24,21,26,22,,,,,,,,,15.1,15.1,00.9*0A
$GPGSV,3,1,11,27,84,018,18,09,82,236,17,18,51,312,00,15,51,055,00*7D
$GPGSV,3,2,11,26,41,294,26,24,39,242,27,21,36,254,33,22,17,312,19*74
$GPGSV,3,3,11,12,14,166,00,28,07,037,00,05,15,135,00,,,,*41
$GPRMC,065153,A,3619.7469,N,13755.7978,E,039.1,070.5,180310,,,A*73
$GPVTG,070.5,T,,M,039.1,N,072.5,K,A*04
$GPGGA,065414,3620.6473,N,13757.2460,E,1,09,01.1,00589.2,M,037.3,M,00,0000*4E
$GPGSA,A,3,15,18,09,27,26,21,24,22,12,,,,01.8,01.1,01.4*0D
$GPGSV,3,1,11,27,83,019,40,09,83,242,34,18,52,312,37,15,50,057,43*76
$GPGSV,3,2,11,26,42,296,37,24,38,240,32,21,36,253,33,22,18,312,32*73
$GPGSV,3,3,11,12,15,166,35,28,07,036,00,05,14,135,35,,,,*40
$GPRMC,065414,A,3620.6473,N,13757.2460,E,036.5,059.4,180310,,,A*77
$GPVTG,059.4,T,,M,036.5,N,067.6,K,A*02
$GPGGA,065429,3620.6770,N,13757.4226,E,1,08,01.4,00601.5,M,037.3,M,00,0000*42
$GPGSA,A,3,15,18,09,27,26,21,24,12,,,,,02.6,01.4,02.2*00
$GPGSV,3,1,11,27,83,019,37,09,83,243,39,18,53,312,36,15,50,057,35*7B
$GPGSV,3,2,11,26,42,296,26,24,38,240,32,21,36,253,36,22,18,313,00*76
$GPGSV,3,3,11,12,15,166,26,05,14,136,29,28,07,036,00,,,,*4C
$GPRMC,065429,A,3620.6770,N,13757.4226,E,034.8,092.5,180310,,,A*72
$GPVTG,092.5,T,,M,034.8,N,064.5,K,A*0B
$GPGGA,065444,3620.6931,N,13757.5984,E,1,08,01.4,00612.6,M,037.3,M,00,0000*41
$GPGSA,A,3,15,18,09,27,26,21,24,12,,,,,02.6,01.4,02.2*00
$GPGSV,3,1,11,09,83,244,39,27,83,019,39,18,53,312,31,15,50,057,42*75
$GPGSV,3,2,11,26,42,296,37,24,38,240,30,21,36,252,35,22,18,313,00*76
$GPGSV,3,3,11,12,15,166,30,05,14,136,32,28,07,036,00,,,,*41
$GPRMC,065444,A,3620.6931,N,13757.5984,E,034.1,065.9,180310,,,A*7D
$GPVTG,065.9,T,,M,034.1,N,063.2,K,A*06
$GPGGA,065454,3620.7504,N,13757.6892,E,1,09,01.0,00620.0,M,037.3,M,00,0000*4C
$GPGSA,A,3,15,18,09,27,26,21,24,28,12,,,,01.6,01.0,01.2*0E
$GPGSV,3,1,11,09,83,244,39,27,83,019,33,18,53,312,34,15,50,057,40*78
$GPGSV,3,2,11,26,42,296,37,24,38,240,26,21,36,252,34,22,18,313,00*70
$GPGSV,3,3,11,12,15,166,29,05,14,136,30,28,07,036,33,,,,*4B
$GPRMC,065454,A,3620.7504,N,13757.6892,E,033.2,040.6,180310,,,A*7E
$GPVTG,040.6,T,,M,033.2,N,061.5,K,A*0F
$GPGGA,065509,3620.8612,N,13757.7840,E,1,08,01.4,00629.7,M,037.3,M,00,0000*4B
$GPGSA,A,3,26,27,18,15,09,21,24,12,,,,,02.7,01.4,02.3*00
$GPGSV,3,1,11,09,83,244,36,27,83,019,40,18,53,312,39,15,50,057,38*71
$GPGSV,3,2,11,26,42,296,41,24,38,240,33,21,36,252,34,22,18,313,00*75
$GPGSV,3,3,11,12,15,166,27,05,14,136,32,28,07,036,00,,,,*47
$GPRMC,065509,A,3620.8612,N,13757.7840,E,031.5,036.5,180310,,,A*75
$GPVTG,036.5,T,,M,031.5,N,058.3,K,A*04
$GPGGA,065524,3620.9649,N,13757.8891,E,1,06,02.2,00646.5,M,037.3,M,00,0000*48
$GPGSA,A,3,27,09,15,26,18,21,,,,,,,03.9,02.2,03.3*0E
$GPGSV,3,1,11,09,83,244,39,27,83,019,41,18,53,312,35,15,50,057,39*72
$GPGSV,3,2,11,26,42,296,37,24,38,240,00,21,36,252,34,22,18,313,00*74
$GPGSV,3,3,11,12,15,166,00,05,14,136,27,28,07,036,00,,,,*46
$GPRMC,065524,A,3620.9649,N,13757.8891,E,031.2,045.0,180310,,,A*70
$GPVTG,045.0,T,,M,031.2,N,057.9,K,A*07
$GPGGA,065539,3621.0562,N,13758.0084,E,1,08,01.2,00667.1,M,037.3,M,00,0000*47
$GPGSA,A,3,09,27,18,15,21,26,22,12,,,,,01.9,01.2,01.5*08
$GPGSV,3,1,11,09,83,244,42,27,83,019,41,18,53,312,40,15,50,057,40*72
$GPGSV,3,2,11,26,42,296,36,24,38,240,00,21,36,252,37,22,18,313,35*70
$GPGSV,3,3,11,12,15,166,33,05,14,136,38,28,07,036,00,,,,*48
$GPRMC,065539,A,3621.0562,N,13758.0084,E,032.8,047.6,180310,,,A*78
$GPVTG,047.6,T,,M,032.8,N,060.9,K,A*0E
$GPGGA,065554,3621.1320,N,13758.1395,E,1,08,01.4,00680.7,M,037.3,M,00,0000*46
